89835417	36.85	914.73	0.0	0.4	-1.23	-0.5	1.0	2.05	6.24	37.85	b'$GNGSA,A,1,,,,,,,,,,,,,99.99,99.99,99.99*2E\r\n'
156890364	36.85	914.7	0.0	0.08	-1.11	-0.52	-0.86	0.18	11.53	37.94	b'$GPGSV,4,1,13,02,14,041,14,04,04,328,08,05,16,089,08,11,10,038,10*78\r\n'
231637864	36.86	914.74	0.0	-0.21	-1.01	-0.53	8.61	9.54	-6.64	37.94	b'$GPGSV,4,2,13,12,10,112,13,16,03,296,10,18,42,177,12,20,16,056,*7C\r\n'
306453489	36.86	914.82	0.0	0.11	-1.07	-0.42	5.95	19.03	-22.05	38.04	b'$GPGSV,4,3,13,22,06,241,08,25,51,110,09,26,31,302,10,29,75,029,22*7B\r\n'
339135937	36.86	914.82	0.0	0.43	-1.3	-0.49	4.37	11.89	-2.78	38.04	b'$GPGSV,4,4,13,31,55,264,*49\r\n'
406565000	36.86	914.86	0.0	0.35	-1.3	-0.5	1.4	7.6	7.01	37.94	b'$GLGSV,2,1,08,65,04,013,10,72,02,329,10,73,39,322,08,79,25,140,*6D\r\n'
473167916	36.87	914.94	0.0	-0.01	-1.07	-0.59	7.6	8.24	7.55	38.69	b'$GLGSV,2,2,08,80,88,146,,81,24,036,10,82,75,029,17,83,53,217,*61\r\n'
503592448	36.86	914.96	0.0	-0.12	-1.09	-0.4	9.98	17.96	-10.31	38.04	b'$GNGLL,,,,,072000.00,V,N*51\r\n'
925908177	36.85	914.95	0.0	0.01	-1.12	-0.44	8.18	21.29	-15.5	38.04	b'$GNRMC,072001.00,V,,,,,,,220622,,,N*61\r\n'
958004635	36.84	915.25	0.0	0.28	-1.15	-0.45	-2.0	20.5	1.05	37.94	b'$GNVTG,,,,,,,,,N*2E\r\n'
992455885	36.84	915.23	0.0	0.17	-1.09	-0.49	-0.7	19.55	4.14	37.94	b'$GNGGA,072001.00,,,,,0,00,99.99,,,,,,*7C\r\n'
1042105052	36.85	915.24	0.0	0.06	-1.01	-0.53	4.08	20.64	3.44	37.94	b'$GNGSA,A,1,,,,,,,,,,,,,99.99,99.99,99.99*2E\r\n'
1091868906	36.85	915.27	0.0	-0.06	-1.04	-0.45	10.59	24.67	-3.68	38.69	b'$GNGSA,A,1,,,,,,,,,,,,,99.99,99.99,99.99*2E\r\n'
1158944062	36.84	915.28	0.0	0.02	-1.14	-0.43	11.26	29.95	-9.95	38.69	b'$GPGSV,4,1,13,02,14,041,17,04,04,328,09,05,16,089,08,11,10,038,14*7E\r\n'
1233591666	36.85	915.36	0.0	0.27	-1.3	-0.41	5.42	29.54	-8.41	38.69	b'$GPGSV,4,2,13,12,10,112,15,16,03,296,09,18,42,177,12,20,16,056,*72\r\n'
1308411406	36.85	915.44	0.0	0.26	-1.14	-0.38	1.88	23.24	6.75	37.94	b'$GPGSV,4,3,13,22,06,241,09,25,51,110,08,26,31,302,08,29,75,029,21*71\r\n'
1339613281	36.85	915.49	0.0	0.02	-1.09	-0.49	8.47	23.9	9.02	37.94	b'$GPGSV,4,4,13,31,55,264,30*4A\r\n'
1408615520	36.86	915.45	0.0	-0.06	-1.1	-0.43	8.34	27.11	3.4	37.94	b'$GLGSV,2,1,08,65,04,013,11,72,02,329,18,73,39,322,08,79,25,140,*64\r\n'
1475320520	36.86	915.45	0.0	0.05	-1.05	-0.42	8.18	33.18	-3.95	38.04	b'$GLGSV,2,2,08,80,88,146,,81,24,036,13,82,75,029,14,83,53,217,*61\r\n'
1506585312	36.86	915.56	0.0	0.24	-1.14	-0.37	3.98	31.79	-1.02	38.69	b'$GNGLL,,,,,072001.00,V,N*50\r\n'
1971417343	36.86	915.56	0.0	0.27	-1.15	-0.41	0.25	29.4	4.2	37.94	b'$GNRMC,072002.00,A,4435.99686,N,01139.13051,E,47.939,300.54,220622,,,A*41\r\n'
2013263749	36.82	915.75	0.0	0.05	-1.07	-0.52	6.27	29.06	9.59	37.94	b'$GNVTG,300.54,T,,M,47.939,N,88.784,K,A*2A\r\n'
2088381718	36.84	915.86	0.0	0.11	-1.14	-0.45	5.23	30.05	5.96	37.94	b'$GNGGA,072002.00,4435.99686,N,01139.13051,E,1,03,2.04,32.5,M,45.2,M,,*75\r\n'
2138197447	36.83	915.9	0.0	0.27	-1.2	-0.49	-0.83	27.41	8.48	37.94	b'$GNGSA,A,2,18,12,,,,,,,,,,,2.27,2.04,1.00*17\r\n'
2187862030	36.83	915.95	0.0	0.28	-1.13	-0.53	-2.25	23.31	14.15	37.94	b'$GNGSA,A,2,81,,,,,,,,,,,,2.27,2.04,1.00*14\r\n'
2254874062	36.82	915.88	0.0	0.16	-1.04	-0.53	0.6	21.98	15.08	37.28	b'$GPGSV,4,1,13,02,14,041,18,04,04,328,09,05,16,089,08,11,10,038,16*73\r\n'
2329562551	36.84	915.97	0.0	0.09	-1.05	-0.51	4.35	23.53	9.06	37.94	b'$GPGSV,4,2,13,12,10,112,27,16,03,296,08,18,42,177,11,20,16,056,*71\r\n'
2404375520	36.84	916.02	0.0	0.17	-1.12	-0.45	3.22	23.72	5.08	38.69	b'$GPGSV,4,3,13,22,06,241,08,25,51,110,07,26,31,302,08,29,75,029,23*7D\r\n'
2437638332	36.84	916.1	0.0	0.24	-1.03	-0.46	0.04	20.47	8.05	38.04	b'$GPGSV,4,4,13,31,55,264,27*4C\r\n'
2504737812	36.84	916.1	0.0	0.24	-1.04	-0.47	0.64	18.5	10.93	37.94	b'$GLGSV,2,1,08,65,04,013,17,72,02,329,20,73,39,322,09,79,25,140,28*62\r\n'
2579205780	36.83	916.09	0.0	0.19	-1.07	-0.47	-0.21	16.01	12.73	37.94	b'$GLGSV,2,2,08,80,88,146,,81,24,036,17,82,75,029,12,83,53,217,*63\r\n'
2629755624	36.84	916.21	0.0	0.13	-1.04	-0.48	1.6	15.83	9.64	37.85	b'$GNGLL,4435.99686,N,01139.13051,E,072002.00,A,A*72\r\n'
2966647291	36.83	916.2	0.0	0.12	-1.03	-0.43	0.9	16.9	5.77	37.94	b'$GNRMC,072003.00,A,4436.00577,N,01139.08687,E,32.534,308.53,220622,,,A*45\r\n'
3008510676	36.81	916.33	0.0	0.13	-1.04	-0.42	-1.72	17.66	-3.65	37.94	b'$GNVTG,308.53,T,,M,32.534,N,60.253,K,A*2F\r\n'
3083543228	36.81	916.3	0.0	0.19	-1.02	-0.42	-3.69	16.86	-2.66	37.85	b'$GNGGA,072003.00,4436.00577,N,01139.08687,E,1,05,2.77,53.1,M,45.2,M,,*7C\r\n'
3133514113	36.82	916.37	0.0	0.2	-0.98	-0.43	0.16	13.51	4.13	38.04	b'$GNGSA,A,3,18,12,31,,,,,,,,,,7.07,2.77,6.50*15\r\n'
3183339478	36.82	916.31	0.0	0.12	-0.96	-0.4	-0.59	12.86	4.16	37.28	b'$GNGSA,A,3,81,73,,,,,,,,,,,7.07,2.77,6.50*10\r\n'
3258022915	36.81	916.36	0.0	0.07	-0.92	-0.39	-1.92	14.02	0.69	38.69	b'$GPGSV,4,1,13,02,14,041,29,04,04,328,,05,16,089,10,11,10,038,29*7D\r\n'
3324916717	36.82	916.45	0.0	0.11	-0.91	-0.4	0.45	15.5	-2.82	37.94	b'$GPGSV,4,2,13,12,10,112,18,16,03,296,08,18,42,177,10,20,16,056,*7C\r\n'
3399601405	36.81	916.47	0.0	0.18	-0.96	-0.38	-1.62	14.73	-2.33	37.94	b'$GPGSV,4,3,13,22,06,241,,25,51,110,07,26,31,302,08,29,75,029,22*74\r\n'
3432835988	36.82	916.48	0.0	0.2	-0.9	-0.38	-2.5	11.44	2.01	37.94	b'$GPGSV,4,4,13,31,55,264,25*4E\r\n'
3499979165	36.81	916.47	0.0	0.16	-0.9	-0.37	-3.38	10.73	5.15	37.94	b'$GLGSV,2,1,08,65,04,013,21,72,02,329,20,73,39,322,11,79,25,141,16*62\r\n'
3574451665	36.82	916.54	0.0	0.07	-1.0	-0.41	-4.69	12.22	0.85	38.04	b'$GLGSV,2,2,08,80,88,146,,81,24,036,19,82,75,029,10,83,53,217,*6F\r\n'
3624890572	36.82	916.58	0.0	0.14	-0.96	-0.4	-0.56	13.41	-2.34	37.85	b'$GNGLL,4436.00577,N,01139.08687,E,072003.00,A,A*7A\r\n'
3971434009	36.81	916.58	0.0	0.17	-1.05	-0.39	-4.01	12.92	-1.72	37.94	b'$GNRMC,072004.00,A,4435.99748,N,01139.08325,E,22.126,291.57,220622,,,A*41\r\n'
4013291405	36.78	916.72	0.0	0.18	-1.02	-0.46	-5.87	11.05	-1.58	37.94	b'$GNVTG,291.57,T,,M,22.126,N,40.978,K,A*2C\r\n'
4088314478	36.79	916.85	0.0	0.16	-1.08	-0.46	-4.71	10.31	-0.74	37.85	b'$GNGGA,072004.00,4435.99748,N,01139.08325,E,1,07,6.90,57.5,M,45.2,M,,*74\r\n'
4146378905	36.78	916.78	0.0	0.15	-1.05	-0.46	-3.56	9.84	0.15	38.69	b'$GNGSA,A,3,02,12,11,31,,,,,,,,,10.49,6.90,7.90*22\r\n'
4196506717	36.66	916.66	0.0	0.12	-0.98	-0.4	-5.74	10.86	-2.43	37.94	b'$GNGSA,A,3,81,73,79,,,,,,,,,,10.49,6.90,7.90*22\r\n'
4263313696	36.79	916.85	0.0	0.15	-0.96	-0.41	-6.15	11.04	-3.19	37.94	b'$GPGSV,4,1,13,02,14,041,17,04,04,328,,05,16,089,10,11,10,038,26*7F\r\n'
4338052498	36.79	916.95	0.0	0.2	-1.07	-0.45	-8.57	9.5	-0.95	37.94	b'$GPGSV,4,2,13,12,10,112,28,16,03,296,09,18,42,177,09,20,16,056,19*7E\r\n'
4412871144	36.8	917.0	0.0	0.16	-1.03	-0.47	-4.82	8.19	1.05	37.94	b'$GPGSV,4,3,13,22,06,241,21,25,51,110,08,26,31,302,08,29,75,029,22*78\r\n'
4446101561	36.79	917.01	0.0	0.11	-1.03	-0.43	-7.1	9.13	-2.69	37.85	b'$GPGSV,4,4,13,31,55,264,22*49\r\n'
4520932550	36.79	916.98	0.0	0.14	-1.02	-0.47	-6.02	9.29	-3.84	37.85	b'$GLGSV,2,1,08,65,04,013,20,72,02,329,19,73,39,322,13,79,25,141,21*6F\r\n'
4587794582	36.8	917.05	0.0	0.22	-1.03	-0.39	-8.19	7.12	-1.79	38.69	b'$GLGSV,2,2,08,80,87,149,,81,24,036,20,82,75,029,10,83,53,217,*65\r\n'
4640281665	36.8	917.05	0.0	0.21	-0.99	-0.46	-9.49	3.98	3.27	38.04	b'$GNGLL,4435.99748,N,01139.08325,E,072004.00,A,A*7D\r\n'
4962047863	36.78	917.05	0.0	0.17	-1.04	-0.47	-6.73	2.76	4.73	38.69	b'$GNRMC,072005.00,A,4435.99036,N,01139.08729,E,2.787,,220622,,,A*6F\r\n'
4995578696	36.77	917.31	0.0	0.24	-1.06	-0.45	-6.45	-0.16	2.7	37.94	b'$GNVTG,,T,,M,2.787,N,5.161,K,A*34\r\n'
5078390102	36.77	917.36	0.0	0.14	-1.08	-0.51	-5.69	0.12	1.0	37.94	b'$GNGGA,072005.00,4435.99036,N,01139.08729,E,1,07,3.17,66.2,M,45.2,M,,*7C\r\n'
5128622706	36.78	917.37	0.0	0.23	-1.0	-0.52	-5.15	-0.64	-0.49	37.85	b'$GNGSA,A,3,02,12,11,31,22,,,,,,,,7.39,3.17,6.68*1F\r\n'
5178507238	36.77	917.39	0.0	0.23	-1.15	-0.48	-4.46	-3.21	2.84	37.94	b'$GNGSA,A,3,81,79,,,,,,,,,,,7.39,3.17,6.68*1B\r\n'
5245447446	36.78	917.43	0.0	0.19	-1.08	-0.62	-4.2	-4.89	3.98	37.85	b'$GPGSV,4,1,13,02,14,041,19,04,04,328,,05,16,089,09,11,10,038,24*7B\r\n'
5320254633	36.78	917.45	0.0	0.12	-1.03	-0.48	-3.69	-4.6	0.04	37.94	b'$GPGSV,4,2,13,12,10,112,25,16,03,296,08,18,42,177,08,20,16,056,17*7D\r\n'
5395051040	36.78	917.5	0.0	0.21	-1.02	-0.51	-3.46	-5.67	-1.4	37.94	b'$GPGSV,4,3,13,22,06,241,24,25,51,110,08,26,31,302,08,29,75,029,21*7E\r\n'
5428288696	36.78	917.62	0.0	0.22	-1.03	-0.45	-1.07	-9.69	3.37	37.94	b'$GPGSV,4,4,13,31,55,264,19*41\r\n'
5495153956	36.77	917.52	0.0	0.18	-1.02	-0.45	-2.37	-10.87	3.53	37.85	b'$GLGSV,2,1,08,65,04,013,20,72,02,329,18,73,39,322,,79,25,141,22*6F\r\n'
5562015571	36.78	917.56	0.0	0.16	-0.96	-0.52	-0.15	-12.11	2.45	37.94	b'$GLGSV,2,2,08,80,87,149,,81,23,036,21,82,75,029,10,83,53,217,*63\r\n'
5619162289	36.78	917.65	0.0	0.15	-1.03	-0.47	2.2	-12.66	-0.33	37.94	b'$GNGLL,4435.99036,N,01139.08729,E,072005.00,A,A*7A\r\n'
5961610519	36.78	917.59	0.0	0.18	-0.97	-0.48	2.75	-13.83	-0.92	37.28	b'$GNRMC,072006.00,A,4435.98501,N,01139.08031,E,7.456,,220622,,,A*68\r\n'
5995181716	36.75	917.81	0.0	0.15	-0.99	-0.5	8.26	-16.15	-2.63	37.28	b'$GNVTG,,T,,M,7.456,N,13.809,K,A*0E\r\n'
6078067810	36.76	917.83	0.0	0.1	-1.02	-0.45	8.49	-15.75	-2.96	37.94	b'$GNGGA,072006.00,4435.98501,N,01139.08031,E,1,05,3.29,73.8,M,45.2,M,,*70\r\n'
6128035883	36.76	917.92	0.0	0.08	-1.01	-0.47	4.13	-12.76	-7.24	37.85	b'$GNGSA,A,3,02,11,31,,,,,,,,,,7.90,3.29,7.18*14\r\n'
6170069477	36.76	917.92	0.0	0.0	-1.04	-0.49	5.27	-11.76	-7.13	37.94	b'$GNGSA,A,3,81,79,,,,,,,,,,,7.90,3.29,7.18*13\r\n'
6244768643	36.77	918.04	0.0	0.13	-1.06	-0.47	5.04	-11.34	-6.02	37.85	b'$GPGSV,4,1,13,02,14,041,21,04,04,328,,05,16,089,10,11,10,038,22*7E\r\n'
6319741456	36.77	917.99	0.0	0.08	-1.03	-0.47	3.03	-8.86	-7.48	37.94	b'$GPGSV,4,2,13,12,10,112,22,16,03,296,08,18,42,177,08,20,16,056,13*7E\r\n'
6386384477	36.77	918.06	0.0	0.11	-1.06	-0.43	0.64	-6.68	-7.85	37.94	b'$GPGSV,4,3,13,22,06,241,,25,51,110,,26,31,302,08,29,75,029,20*71\r\n'
6419588643	36.77	918.03	0.0	0.12	-1.03	-0.62	-1.75	-5.9	-5.87	37.94	b'$GPGSV,4,4,13,31,55,264,19*41\r\n'
6486622185	36.77	918.12	0.0	0.09	-1.03	-0.49	0.56	-5.05	-5.53	38.04	b'$GLGSV,2,1,08,65,04,013,19,72,02,329,18,73,39,322,,79,25,141,21*66\r\n'
6561056404	36.77	918.2	0.0	0.08	-1.08	-0.43	-1.95	-2.36	-7.95	37.28	b'$GLGSV,2,2,08,80,87,149,,81,23,036,20,82,75,029,11,83,53,217,*63\r\n'
6611495831	36.77	918.22	0.0	0.15	-1.0	-0.48	-3.18	-2.32	-4.41	37.94	b'$GNGLL,4435.98501,N,01139.08031,E,072006.00,A,A*77\r\n'
6969766195	36.76	918.24	0.0	0.11	-1.05	-0.44	-2.85	-2.04	-3.06	37.94	b'$GNRMC,072007.00,A,4435.97672,N,01139.07601,E,7.504,256.66,220622,,,A*72\r\n'
7011553695	36.75	918.39	0.0	0.14	-1.0	-0.48	-3.47	0.08	0.79	37.94	b'$GNVTG,256.66,T,,M,7.504,N,13.898,K,A*1F\r\n'
7086629060	36.76	918.37	0.0	0.11	-1.01	-0.46	-1.65	0.1	1.38	37.94	b'$GNGGA,072007.00,4435.97672,N,01139.07601,E,1,05,3.29,79.6,M,45.2,M,,*77\r\n'
7136592914	36.76	918.45	0.0	0.1	-1.03	-0.45	-2.92	1.62	0.2	37.94	b'$GNGSA,A,3,02,11,31,,,,,,,,,,7.90,3.29,7.18*14\r\n'
7186494945	36.76	918.49	0.0	0.0	-1.01	-0.46	-3.23	2.01	0.76	37.94	b'$GNGSA,A,3,81,79,,,,,,,,,,,7.90,3.29,7.18*13\r\n'
7253402706	36.77	918.52	0.0	0.14	-0.97	-0.46	-1.46	1.89	2.42	37.28	b'$GPGSV,4,1,13,02,14,041,20,04,04,328,20,05,16,089,,11,10,038,20*7E\r\n'
7328220049	36.75	918.5	0.0	0.1	-0.96	-0.44	-0.49	2.35	3.17	37.85	b'$GPGSV,4,2,13,12,10,112,28,16,03,296,08,18,42,177,08,20,16,056,11*76\r\n'
7402827393	36.77	918.58	0.0	0.1	-1.0	-0.45	-1.11	3.94	0.97	37.94	b'$GPGSV,4,3,13,22,06,241,19,25,51,110,,26,31,302,08,29,75,029,22*7B\r\n'
7436130153	36.77	918.58	0.0	0.11	-0.95	-0.44	-2.34	4.6	1.56	37.85	b'$GPGSV,4,4,13,31,55,264,17*4F\r\n'
7502970726	36.77	918.6	0.0	0.11	-0.91	-0.45	-0.82	4.88	1.91	37.94	b'$GLGSV,2,1,08,65,04,013,17,72,02,329,18,73,39,322,,79,25,141,30*68\r\n'
7569726716	36.77	918.64	0.0	0.11	-0.92	-0.41	-0.24	5.12	3.15	37.94	b'$GLGSV,2,2,08,80,87,149,,81,23,036,21,82,75,029,13,83,54,218,*68\r\n'
7625881455	36.76	918.67	0.0	0.06	-0.9	-0.43	-1.24	6.54	1.85	37.85	b'$GNGLL,4435.97672,N,01139.07601,E,072007.00,A,A*74\r\n'
7969072601	36.76	918.68	0.0	0.05	-0.92	-0.41	-2.31	8.79	-1.76	37.94	b'$GNRMC,072008.00,A,4435.97152,N,01139.07163,E,7.093,178.74,220622,,,A*7C\r\n'
8010835674	36.73	918.79	0.0	0.09	-0.87	-0.43	2.93	10.88	-2.18	37.94	b'$GNVTG,178.74,T,,M,7.093,N,13.136,K,A*15\r\n'
8085945570	36.74	918.86	0.0	0.14	-0.93	-0.42	3.38	10.87	-1.03	38.04	b'$GNGGA,072008.00,4435.97152,N,01139.07163,E,1,05,3.29,86.1,M,45.2,M,,*79\r\n'
8135891143	36.74	918.89	0.0	0.17	-0.97	-0.41	-1.24	9.34	2.1	37.94	b'$GNGSA,A,3,02,11,31,,,,,,,,,,7.90,3.29,7.18*14\r\n'
8185693591	36.75	918.9	0.0	0.17	-0.87	-0.47	-1.15	8.0	5.37	37.94	b'$GNGSA,A,3,81,79,,,,,,,,,,,7.90,3.29,7.18*13\r\n'
8252690049	36.74	918.98	0.0	0.18	-0.99	-0.48	2.93	6.39	9.43	37.85	b'$GPGSV,4,1,13,02,14,041,19,04,04,328,,05,16,089,26,11,10,038,19*78\r\n'
8327455049	36.76	919.01	0.0	0.07	-1.03	-0.46	-0.07	6.73	7.85	37.94	b'$GPGSV,4,2,13,12,10,112,28,16,03,296,07,18,42,177,10,20,16,056,09*79\r\n'
8402152757	36.75	918.94	0.0	0.15	-0.93	-0.45	-1.3	7.44	6.7	37.94	b'$GPGSV,4,3,13,22,06,241,22,25,51,110,,26,31,302,09,29,75,029,22*72\r\n'
8435383330	36.76	919.11	0.0	0.16	-0.92	-0.48	-1.66	5.53	11.63	37.94	b'$GPGSV,4,4,13,31,55,264,18*40\r\n'
8502240101	36.76	919.05	0.0	0.08	-0.91	-0.48	1.02	5.78	11.43	37.94	b'$GLGSV,2,1,08,65,04,013,16,72,02,329,18,73,39,322,,79,25,141,28*60\r\n'
8569054163	36.74	919.03	0.0	0.05	-0.9	-0.45	2.55	8.44	5.95	37.85	b'$GLGSV,2,2,08,80,87,149,,81,23,036,20,82,75,029,14,83,54,218,*6E\r\n'
8625206768	36.76	919.11	0.0	0.12	-0.92	-0.4	-1.18	9.31	3.98	37.85	b'$GNGLL,4435.97152,N,01139.07163,E,072008.00,A,A*7D\r\n'
8971067809	36.74	919.14	0.0	0.15	-0.79	-0.44	-0.24	8.14	6.61	37.94	b'$GNRMC,072009.00,A,4435.96889,N,01139.06829,E,7.011,138.61,220622,,,A*7F\r\n'
9012905049	36.74	919.29	0.0	0.13	-0.94	-0.47	8.56	10.87	6.7	37.85	b'$GNVTG,138.61,T,,M,7.011,N,12.984,K,A*1F\r\n'
9088058226	36.74	919.33	0.0	0.13	-1.0	-0.46	8.85	10.21	9.05	37.85	b'$GNGGA,072009.00,4435.96889,N,01139.06829,E,1,05,3.29,92.3,M,45.2,M,,*77\r\n'
9137933121	36.74	919.4	0.0	0.02	-0.99	-0.45	7.71	12.63	5.11	37.94	b'$GNGSA,A,3,02,11,31,,,,,,,,,,7.90,3.29,7.18*14\r\n'
9187722340	36.74	919.42	0.0	0.06	-0.96	-0.46	7.67	14.89	1.17	37.94	b'$GNGSA,A,3,81,79,,,,,,,,,,,7.90,3.29,7.18*13\r\n'
9254586611	36.74	919.4	0.0	0.15	-0.98	-0.46	7.99	14.79	2.59	37.85	b'$GPGSV,4,1,13,02,14,041,19,04,04,328,,05,16,089,23,11,10,038,19*7D\r\n'
9329589632	36.74	919.52	0.0	0.12	-1.01	-0.45	5.99	13.4	7.02	37.94	b'$GPGSV,4,2,13,12,10,112,25,16,03,296,08,18,42,177,26,20,16,056,08*7F\r\n'
9404155569	36.74	919.55	0.0	0.06	-0.97	-0.48	6.86	15.37	4.49	37.94	b'$GPGSV,4,3,13,22,06,241,18,25,51,110,,26,31,302,09,29,75,029,20*79\r\n'
9437398121	36.74	919.55	0.0	0.09	-0.97	-0.45	3.93	17.91	1.15	37.94	b'$GPGSV,4,4,13,31,55,264,19*41\r\n'
9504456767	36.74	919.57	0.0	0.1	-0.93	-0.46	4.89	18.15	1.43	37.94	b'$GLGSV,2,1,08,65,04,013,15,72,02,329,17,73,39,322,18,79,25,141,26*6B\r\n'
9579010048	36.74	919.52	0.0	0.1	-0.93	-0.43	5.12	18.46	2.65	37.94	b'$GLGSV,2,2,08,80,87,149,,81,23,036,20,82,75,029,13,83,54,218,*69\r\n'
9629510621	36.74	919.56	0.0	0.12	-1.07	-0.49	5.02	19.34	2.16	37.94	b'$GNGLL,4435.96889,N,01139.06829,E,072009.00,A,A*74\r\n'
9970885725	36.68	919.55	0.0	0.13	-1.11	-0.51	3.43	19.4	2.47	37.85	b'$GNRMC,072010.00,A,4435.96734,N,01139.06738,E,8.577,119.09,220622,,,A*76\r\n'
10012635361	36.73	919.8	0.0	0.17	-1.19	-0.54	1.95	15.37	8.34	37.94	b'$GNVTG,119.09,T,,M,8.577,N,15.884,K,A*1E\r\n'
10087770048	36.74	919.83	0.0	0.16	-1.25	-0.5	0.26	14.57	8.93	37.85	b'$GNGGA,072010.00,4435.96734,N,01139.06738,E,1,07,2.52,99.6,M,45.2,M,,*78\r\n'
10145803590	36.66	919.77	0.0	0.14	-1.08	-0.52	-0.73	14.5	7.03	37.94	b'$GNGSA,A,3,05,02,12,11,31,,,,,,,,6.08,2.52,5.53*12\r\n'
10188007652	36.73	919.87	0.0	0.19	-1.01	-0.51	3.26	12.85	9.56	37.94	b'$GNGSA,A,3,81,79,,,,,,,,,,,6.08,2.52,5.53*13\r\n'
10262682809	36.74	919.89	0.0	0.2	-1.06	-0.5	3.54	11.38	12.26	37.75	b'$GPGSV,4,1,13,02,14,041,20,04,04,328,17,05,16,089,20,11,10,038,21*79\r\n'
10337364319	36.74	919.97	0.0	0.13	-1.12	-0.53	-1.31	9.8	13.63	37.85	b'$GPGSV,4,2,13,12,10,112,21,16,03,296,,18,42,177,23,20,16,056,08*76\r\n'
10404195413	36.73	919.99	0.0	0.09	-1.01	-0.51	1.61	12.07	7.41	37.85	b'$GPGSV,4,3,13,22,06,241,17,25,51,110,,26,31,302,09,29,75,029,23*75\r\n'
10437442444	36.74	920.0	0.0	0.18	-0.95	-0.47	3.63	10.56	9.51	37.94	b'$GPGSV,4,4,13,31,55,264,23*48\r\n'
10512331402	36.74	920.1	0.0	0.19	-0.92	-0.48	4.37	8.93	12.34	37.94	b'$GLGSV,2,1,08,65,04,013,28,72,02,329,20,73,39,322,20,79,25,141,23*6F\r\n'
10579094267	36.74	920.15	0.0	0.07	-0.96	-0.48	6.87	7.98	13.05	38.69	b'$GLGSV,2,2,08,80,87,149,,81,23,036,20,82,75,029,13,83,54,218,*69\r\n'
10633158694	36.74	920.2	0.0	0.07	-1.0	-0.5	5.41	10.55	6.0	37.85	b'$GNGLL,4435.96734,N,01139.06738,E,072010.00,A,A*7A\r\n'
10971469944	36.74	920.17	0.0	0.18	-0.96	-0.52	9.92	9.75	7.49	37.94	b'$GNRMC,072011.00,A,4435.96233,N,01139.07008,E,14.199,118.50,220622,,,A*44\r\n'
11013328902	36.72	920.35	0.0	0.13	-1.06	-0.47	11.12	7.82	7.79	37.85	b'$GNVTG,118.50,T,,M,14.199,N,26.296,K,A*23\r\n'
11096213173	36.73	920.36	0.0	0.1	-1.05	-0.51	9.38	7.97	7.6	37.85	b'$GNGGA,072011.00,4435.96233,N,01139.07008,E,1,08,2.50,108.1,M,45.2,M,,*4D\r\n'
11146631402	36.72	920.41	0.0	0.08	-1.1	-0.53	14.99	9.47	5.18	37.85	b'$GNGSA,A,3,05,18,02,12,11,31,,,,,,,5.99,2.50,5.44*14\r\n'
11196546298	36.73	920.42	0.0	0.08	-1.19	-0.48	12.22	10.22	3.23	37.94	b'$GNGSA,A,3,81,79,,,,,,,,,,,5.99,2.50,5.44*1C\r\n'
11271279110	36.74	920.52	0.0	0.09	-1.06	-0.52	9.78	10.97	1.96	37.94	b'$GPGSV,4,1,13,02,14,041,28,04,04,328,16,05,16,089,28,11,10,038,28*71\r\n'
11338155256	36.73	920.5	0.0	0.12	-1.06	-0.62	13.11	10.95	3.74	37.94	b'$GPGSV,4,2,13,12,10,112,29,16,03,296,,18,42,177,22,20,16,056,10*76\r\n'
11412846141	36.73	920.59	0.0	0.09	-1.16	-0.54	12.31	11.02	3.98	37.85	b'$GPGSV,4,3,13,22,06,241,16,25,51,110,,26,31,302,08,29,75,029,24*72\r\n'
11446078225	36.73	920.63	0.0	0.1	-1.26	-0.51	12.17	12.69	1.27	37.85	b'$GPGSV,4,4,13,31,55,264,20*4B\r\n'
11513118485	36.73	920.58	0.0	0.11	-1.21	-0.5	9.32	12.83	1.0	37.94	b'$GLGSV,2,1,08,65,04,013,25,72,02,329,19,73,39,322,18,79,25,141,23*63\r\n'
11587679162	36.74	920.73	0.0	0.25	-1.08	-0.52	7.06	12.35	3.11	37.94	b'$GLGSV,2,2,08,80,87,149,,81,23,036,24,82,75,029,12,83,54,218,*6C\r\n'
11639255777	36.73	920.77	0.0	0.07	-1.1	-0.48	7.35	13.37	3.44	37.94	b'$GNGLL,4435.96233,N,01139.07008,E,072011.00,A,A*7C\r\n'
11973424110	36.73	920.74	0.0	0.05	-1.04	-0.49	6.63	15.56	0.21	37.85	b'$GNRMC,072012.00,A,4435.95937,N,01139.06691,E,11.296,119.83,220622,,,A*4A\r\n'
12015271922	36.72	920.97	0.0	0.13	-1.16	-0.51	4.2	18.08	1.47	37.94	b'$GNVTG,119.83,T,,M,11.296,N,20.920,K,A*25\r\n'
12098160152	36.72	920.94	0.0	0.19	-1.14	-0.54	2.66	17.13	3.83	37.85	b'$GNGGA,072012.00,4435.95937,N,01139.06691,E,1,09,2.50,113.1,M,45.2,M,,*4E\r\n'
12148529943	36.72	921.05	0.0	0.11	-1.18	-0.54	2.26	16.2	6.11	37.85	b'$GNGSA,A,3,05,18,02,12,11,31,,,,,,,6.69,2.50,6.21*18\r\n'
12198597339	36.72	921.09	0.0	0.11	-1.08	-0.52	3.17	16.95	4.54	37.94	b'$GNGSA,A,3,81,73,79,,,,,,,,,,6.69,2.50,6.21*14\r\n'
12273353172	36.73	921.08	0.0	0.14	-1.04	-0.51	4.81	17.03	4.9	37.94	b'$GPGSV,4,1,13,02,14,041,17,04,04,328,14,05,16,089,17,11,10,038,16*7E\r\n'
12348028902	36.72	921.09	0.0	0.16	-1.13	-0.54	6.43	16.08	7.18	37.85	b'$GPGSV,4,2,13,12,10,112,19,16,03,296,,18,42,177,25,20,16,056,08*7B\r\n'
12414989318	36.73	921.18	0.0	0.14	-1.1	-0.49	3.48	14.86	8.69	37.94	b'$GPGSV,4,3,13,22,06,241,14,25,51,110,,26,31,302,07,29,75,029,24*7F\r\n'
12448216818	36.73	921.18	0.0	0.16	-1.09	-0.55	2.95	13.81	9.76	37.94	b'$GPGSV,4,4,13,31,55,264,24*4F\r\n'
12522988433	36.72	921.17	0.0	0.15	-1.08	-0.55	4.87	13.31	10.34	37.94	b'$GLGSV,2,1,08,65,04,013,22,72,02,329,20,73,39,322,16,79,25,141,21*62\r\n'
12589814631	36.73	921.23	0.0	0.11	-1.06	-0.49	5.21	13.4	8.95	37.85	b'$GLGSV,2,2,08,80,87,149,,81,23,036,21,82,75,029,09,83,54,218,*63\r\n'
12640084318	36.72	921.28	0.0	0.14	-1.04	-0.51	3.03	13.47	8.49	37.85	b'$GNGLL,4435.95937,N,01139.06691,E,072012.00,A,A*74\r\n'
12972976297	36.73	921.34	0.0	0.16	-1.05	-0.51	3.86	12.47	10.57	37.85	b'$GNRMC,072013.00,A,4435.95707,N,01139.06652,E,13.088,107.64,220622,,,A*40\r\n'
13014836089	36.71	921.53	0.0	0.13	-1.04	-0.54	5.62	11.47	10.27	37.85	b'$GNVTG,107.64,T,,M,13.088,N,24.239,K,A*2B\r\n'
13097724266	36.72	921.49	0.0	0.12	-1.01	-0.53	7.82	11.48	10.36	37.75	b'$GNGGA,072013.00,4435.95707,N,01139.06652,E,1,10,0.78,104.5,M,45.2,M,,*4F\r\n'
13156021349	36.71	921.53	0.0	0.1	-1.05	-0.48	4.98	11.97	9.73	37.85	b'$GNGSA,A,3,05,18,02,12,11,31,22,,,,,,1.69,0.78,1.50*16\r\n'
13206004474	36.72	921.6	0.0	0.14	-1.02	-0.57	8.43	11.95	8.44	37.85	b'$GNGSA,A,3,81,73,79,,,,,,,,,,1.69,0.78,1.50*1A\r\n'
13273018693	36.72	921.57	0.0	0.13	-1.24	-0.49	8.79	11.03	9.85	37.85	b'$GPGSV,4,1,13,02,14,041,28,04,04,328,11,05,16,089,18,11,10,038,28*75\r\n'
13347851922	36.71	921.61	0.0	0.11	-1.09	-0.53	4.79	11.49	9.0	38.69	b'$GPGSV,4,2,13,12,10,112,18,16,03,296,23,18,42,177,22,20,16,056,08*7C\r\n'
13422557599	36.71	921.7	0.0	0.08	-1.08	-0.49	7.15	12.53	6.31	37.94	b'$GPGSV,4,3,13,22,06,241,12,25,51,110,,26,31,302,07,29,75,029,24*79\r\n'
13455203328	36.72	921.76	0.0	0.14	-1.01	-0.54	7.31	12.65	5.66	37.94	b'$GPGSV,4,4,13,31,55,264,24*4F\r\n'
13522814161	36.72	921.71	0.0	0.16	-1.05	-0.51	8.5	11.95	7.2	37.94	b'$GLGSV,2,1,08,65,04,013,22,72,02,329,28,73,39,322,20,79,25,141,19*64\r\n'
13589718432	36.71	921.86	0.0	0.1	-1.05	-0.49	5.66	11.02	7.44	37.85	b'$GLGSV,2,2,08,80,87,149,,81,23,036,29,82,75,029,09,83,54,218,*6B\r\n'
13646848745	36.71	921.81	0.0	0.1	-1.05	-0.55	8.15	9.98	4.2	37.94	b'$GNGLL,4435.95707,N,01139.06652,E,072013.00,A,A*77\r\n'
13972393745	36.72	921.81	0.0	0.18	-1.16	-0.52	7.09	11.18	4.98	37.85	b'$GNRMC,072014.00,A,4435.95464,N,01139.07162,E,14.714,110.44,220622,,,A*45\r\n'
14014211870	36.7	922.06	0.0	0.13	-1.15	-0.55	3.11	7.24	5.91	37.85	b'$GNVTG,110.44,T,,M,14.714,N,27.250,K,A*26\r\n'
14097150828	36.7	922.01	0.0	0.11	-1.11	-0.57	4.69	7.73	4.53	37.94	b'$GNGGA,072014.00,4435.95464,N,01139.07162,E,1,09,2.19,109.8,M,45.2,M,,*46\r\n'
14147522286	36.7	922.01	0.0	0.1	-1.01	-0.49	5.0	9.32	0.5	37.85	b'$GNGSA,A,3,05,18,02,12,11,31,,,,,,,5.54,2.19,5.08*10\r\n'
14197588484	36.71	922.07	0.0	0.14	-0.99	-0.49	5.21	9.24	0.61	37.85	b'$GNGSA,A,3,81,73,79,,,,,,,,,,5.54,2.19,5.08*1C\r\n'
14272388328	36.71	922.21	0.0	0.15	-1.05	-0.51	6.58	8.44	1.98	37.94	b'$GPGSV,4,1,13,02,14,041,14,04,04,328,11,05,16,089,29,11,10,038,13*70\r\n'
14347153328	36.72	922.2	0.0	0.13	-1.07	-0.54	5.46	7.94	1.73	37.94	b'$GPGSV,4,2,13,12,10,112,29,16,03,296,20,18,42,177,22,20,16,056,08*7D\r\n'
14414133901	36.71	922.26	0.0	0.12	-1.13	-0.52	5.34	7.79	0.9	37.85	b'$GPGSV,4,3,13,22,06,241,,25,51,110,25,26,31,302,08,29,75,029,24*72\r\n'
14447367078	36.71	922.29	0.0	0.18	-1.15	-0.54	2.1	6.83	1.54	37.85	b'$GPGSV,4,4,13,31,55,264,21*4A\r\n'
14522105776	36.72	922.3	0.0	0.19	-1.11	-0.54	2.5	5.93	3.57	37.94	b'$GLGSV,2,1,08,65,04,013,21,72,02,329,18,73,39,322,18,79,25,141,28*6D\r\n'
14588961713	36.71	922.32	0.0	0.13	-1.02	-0.5	3.89	4.92	5.66	37.85	b'$GLGSV,2,2,08,80,87,149,,81,23,036,20,82,75,029,09,83,54,218,*62\r\n'
14643993067	36.7	922.36	0.0	0.14	-1.17	-0.52	1.17	4.83	5.5	37.85	b'$GNGLL,4435.95464,N,01139.07162,E,072014.00,A,A*73\r\n'
14972741817	36.71	922.41	0.0	0.13	-1.11	-0.56	3.87	4.53	5.93	37.85	b'$GNRMC,072015.00,A,4435.95243,N,01139.07599,E,13.947,112.60,220622,,,A*4C\r\n'
15014524630	36.69	922.65	0.0	0.11	-1.0	-0.46	5.62	5.81	2.08	37.85	b'$GNVTG,112.60,T,,M,13.947,N,25.830,K,A*23\r\n'
15097510828	36.69	922.59	0.0	0.11	-0.99	-0.46	4.28	5.92	3.88	37.94	b'$GNGGA,072015.00,4435.95243,N,01139.07599,E,1,09,2.19,117.2,M,45.2,M,,*41\r\n'
15147940359	36.7	922.66	0.0	0.1	-0.87	-0.52	10.37	6.24	1.98	37.94	b'$GNGSA,A,3,05,18,02,12,11,31,,,,,,,5.53,2.19,5.08*17\r\n'
15197923848	36.7	922.72	0.0	0.1	-0.94	-0.47	14.86	6.98	1.89	37.85	b'$GNGSA,A,3,81,73,79,,,,,,,,,,5.53,2.19,5.08*1B\r\n'
15272569630	36.69	922.78	0.0	0.1	-1.01	-0.5	17.04	7.29	2.15	37.85	b'$GPGSV,4,1,13,02,14,041,15,04,04,327,,05,16,089,18,11,10,038,16*79\r\n'
15347344525	36.7	922.74	0.0	0.14	-1.18	-0.56	8.44	8.82	-0.73	37.85	b'$GPGSV,4,2,13,12,10,112,14,16,03,296,18,18,42,177,25,20,16,056,08*7F\r\n'
15414312755	36.51	922.59	0.0	0.17	-1.11	-0.51	17.5	7.27	5.22	37.85	b'$GPGSV,4,3,13,22,06,241,,25,51,110,22,26,31,302,08,29,75,029,22*73\r\n'
15447535515	36.7	922.85	0.0	0.03	-1.08	-0.41	8.78	8.82	2.37	37.85	b'$GPGSV,4,4,13,31,55,264,21*4A\r\n'
15522308119	36.71	922.89	0.0	0.02	-1.12	-0.43	6.32	10.95	-1.14	37.85	b'$GLGSV,2,1,08,65,04,013,19,72,02,329,15,73,39,322,16,79,25,141,26*6B\r\n'
15589217963	36.7	922.93	0.0	0.08	-0.99	-0.43	5.79	14.75	-6.03	37.85	b'$GLGSV,2,2,08,80,87,149,,81,23,036,19,82,75,029,10,83,54,218,*60\r\n'
15639519577	36.7	922.93	0.0	0.16	-0.95	-0.44	5.68	14.84	-3.3	37.85	b'$GNGLL,4435.95243,N,01139.07599,E,072015.00,A,A*71\r\n'
15969969577	36.7	923.01	0.0	0.12	-1.01	-0.39	4.51	14.02	-0.21	37.94	b'$GNRMC,072016.00,A,4435.95097,N,01139.08247,E,15.894,104.65,220622,,,A*44\r\n'
16011736661	36.69	923.08	0.0	0.05	-1.2	-0.48	3.84	17.08	2.39	37.85	b'$GNVTG,104.65,T,,M,15.894,N,29.435,K,A*2D\r\n'
16094689577	36.69	923.11	0.0	0.08	-1.12	-0.53	3.75	19.35	-0.67	37.75	b'$GNGGA,072016.00,4435.95097,N,01139.08247,E,1,09,2.19,121.1,M,45.2,M,,*44\r\n'
16145078900	36.7	923.2	0.0	0.14	-1.14	-0.42	4.55	19.36	1.94	37.75	b'$GNGSA,A,3,05,18,02,12,11,31,,,,,,,5.53,2.19,5.08*17\r\n'
16195049525	36.69	923.29	0.0	0.12	-1.17	-0.45	-1.77	19.45	2.41	37.85	b'$GNGSA,A,3,81,73,79,,,,,,,,,,5.53,2.19,5.08*1B\r\n'
16269854733	36.7	923.28	0.0	0.15	-1.11	-0.55	-0.44	19.78	2.73	37.85	b'$GPGSV,4,1,13,02,14,041,18,04,04,327,20,05,16,089,17,11,10,038,18*77\r\n'
16344687025	36.69	923.29	0.0	0.11	-1.01	-0.46	1.11	19.78	3.71	37.85	b'$GPGSV,4,2,13,12,10,112,12,16,03,296,22,18,42,177,24,20,16,056,08*71\r\n'
16411678327	36.69	923.35	0.0	0.08	-0.98	-0.5	3.18	21.05	1.78	37.94	b'$GPGSV,4,3,13,22,06,241,,25,51,110,21,26,31,302,08,29,75,029,23*71\r\n'
16444897129	36.69	923.44	0.0	0.11	-1.25	-0.43	1.21	22.35	-1.02	37.85	b'$GPGSV,4,4,13,31,55,264,26*4D\r\n'
16519648431	36.69	923.35	0.0	0.17	-1.08	-0.48	-0.64	22.23	-0.24	37.94	b'$GLGSV,2,1,08,65,04,013,19,72,02,329,20,73,39,322,28,79,25,141,23*65\r\n'
16586542337	36.69	923.41	0.0	0.21	-1.08	-0.52	3.97	19.33	7.76	37.85	b'$GLGSV,2,2,08,80,87,149,,81,23,036,20,82,75,029,12,83,54,218,*68\r\n'
16641564889	36.7	923.47	0.0	0.1	-1.11	-0.49	-1.54	18.81	7.48	37.94	b'$GNGLL,4435.95097,N,01139.08247,E,072016.00,A,A*72\r\n'
16972047389	36.69	923.46	0.0	0.11	-1.0	-0.52	4.15	19.66	5.4	37.85	b'$GNRMC,072017.00,A,4435.94822,N,01139.08782,E,17.091,116.89,220622,,,A*40\r\n'
17013910931	36.67	923.64	0.0	0.16	-1.09	-0.49	2.03	14.38	6.45	37.85	b'$GNVTG,116.89,T,,M,17.091,N,31.652,K,A*29\r\n'
17096815514	36.68	923.67	0.0	0.16	-1.06	-0.46	-1.85	13.28	6.31	37.85	b'$GNGGA,072017.00,4435.94822,N,01139.08782,E,1,09,2.39,121.0,M,45.2,M,,*4D\r\n'
17147249837	36.68	923.69	0.0	0.18	-0.94	-0.49	-0.02	10.71	8.53	37.85	b'$GNGSA,A,3,05,18,02,12,31,25,,,,,,,6.30,2.39,5.83*17\r\n'
17197129889	36.68	923.71	0.0	0.15	-0.97	-0.46	-0.84	9.3	8.29	37.85	b'$GNGSA,A,3,81,73,79,,,,,,,,,,6.30,2.39,5.83*1C\r\n'
17271951973	36.68	923.82	0.0	0.13	-0.92	-0.5	-0.51	8.74	7.05	37.85	b'$GPGSV,4,1,13,02,14,041,20,04,04,327,19,05,16,089,29,11,10,038,22*72\r\n'
17346828379	36.68	923.78	0.0	0.14	-1.0	-0.47	4.6	7.78	6.18	37.85	b'$GPGSV,4,2,13,12,10,112,29,16,03,296,20,18,42,177,21,20,16,056,07*71\r\n'
17413766243	36.69	923.78	0.0	0.18	-0.95	-0.48	-1.73	5.92	5.75	37.75	b'$GPGSV,4,3,13,22,06,241,,25,51,110,22,26,31,302,08,29,75,029,24*75\r\n'
17446992025	36.69	923.89	0.0	0.18	-0.93	-0.51	3.25	3.44	8.57	37.85	b'$GPGSV,4,4,13,31,55,264,23*48\r\n'
17521747910	36.69	923.89	0.0	0.15	-0.98	-0.47	3.42	2.67	8.4	37.85	b'$GLGSV,2,1,08,65,04,013,21,72,02,329,20,73,39,322,25,79,25,141,20*60\r\n'
17588592129	36.68	923.88	0.0	0.12	-0.99	-0.54	1.92	2.57	4.38	37.85	b'$GLGSV,2,2,08,80,87,149,,81,23,036,28,82,75,029,12,83,54,218,*60\r\n'
17643649212	36.68	923.99	0.0	0.17	-1.05	-0.47	3.03	1.38	4.86	37.94	b'$GNGLL,4435.94822,N,01139.08782,E,072017.00,A,A*78\r\n'
17970669837	36.68	923.99	0.0	0.15	-0.97	-0.49	0.17	0.2	5.39	37.94	b'$GNRMC,072018.00,A,4435.94576,N,01139.09392,E,16.087,117.66,220622,,,A*41\r\n'
18012646972	36.66	924.12	0.0	0.14	-0.98	-0.51	6.82	-1.12	1.61	37.85	b'$GNVTG,117.66,T,,M,16.087,N,29.793,K,A*2A\r\n'
18095408483	36.67	924.13	0.0	0.11	-1.04	-0.49	6.82	-1.37	1.66	37.85	b'$GNGGA,072018.00,4435.94576,N,01139.09392,E,1,08,3.08,125.5,M,45.2,M,,*49\r\n'
18145650670	36.67	924.24	0.0	0.08	-1.05	-0.51	3.65	0.29	-1.98	37.85	b'$GNGSA,A,3,05,18,02,12,31,,,,,,,,8.84,3.08,8.29*1F\r\n'
18195625045	36.67	924.24	0.0	0.09	-1.01	-0.62	4.58	1.67	-4.09	37.85	b'$GNGSA,A,3,81,73,79,,,,,,,,,,8.84,3.08,8.29*13\r\n'
18270450410	36.68	924.31	0.0	0.13	-0.88	-0.48	5.14	1.73	-3.44	37.85	b'$GPGSV,4,1,13,02,14,041,18,04,04,327,18,05,16,089,15,11,10,038,20*75\r\n'
18345272597	36.67	924.27	0.0	0.13	-1.03	-0.49	5.08	0.89	-0.6	37.85	b'$GPGSV,4,2,13,12,10,112,21,16,03,296,18,18,42,177,24,20,16,056,07*77\r\n'
18412081816	36.66	924.34	0.0	0.1	-1.12	-0.5	5.34	1.66	-1.41	37.85	b'$GPGSV,4,3,13,22,06,241,,25,51,110,,26,31,302,08,29,75,029,22*73\r\n'
18445269680	36.66	924.37	0.0	0.1	-1.06	-0.52	4.32	2.84	-3.47	37.85	b'$GPGSV,4,4,13,31,55,264,22*49\r\n'
18512407701	36.67	924.41	0.0	0.13	-1.05	-0.53	6.61	3.08	-3.19	37.85	b'$GLGSV,2,1,08,65,04,013,19,72,02,329,20,73,39,322,22,79,25,141,27*6B\r\n'
18586871868	36.67	924.49	0.0	0.14	-1.11	-0.45	5.29	2.65	-1.6	37.28	b'$GLGSV,2,2,08,80,87,149,,81,23,036,18,82,75,029,09,83,54,218,*69\r\n'
18638355462	36.67	924.51	0.0	0.07	-0.98	-0.49	5.34	3.38	-1.31	37.94	b'$GNGLL,4435.94576,N,01139.09392,E,072018.00,A,A*7F\r\n'
18973004784	36.67	924.49	0.0	0.04	-1.08	-0.49	7.37	5.93	-5.16	37.85	b'$GNRMC,072019.00,A,4435.94444,N,01139.09795,E,13.424,112.17,220622,,,A*48\r\n'
19014796607	36.64	924.67	0.0	0.1	-1.08	-0.44	3.16	9.92	-5.27	37.75	b'$GNVTG,112.17,T,,M,13.424,N,24.861,K,A*2E\r\n'
19097768430	36.65	924.66	0.0	0.01	-1.04	-0.47	2.43	10.18	-4.92	37.85	b'$GNGGA,072019.00,4435.94444,N,01139.09795,E,1,08,3.08,127.9,M,45.2,M,,*45\r\n'
19148048066	36.66	924.72	0.0	0.14	-1.08	-0.43	2.66	9.0	-0.15	37.85	b'$GNGSA,A,3,05,18,02,12,31,,,,,,,,8.84,3.08,8.28*1E\r\n'
19198021399	36.66	924.77	0.0	0.09	-1.03	-0.47	1.41	9.62	-0.71	37.85	b'$GNGSA,A,3,81,73,79,,,,,,,,,,8.84,3.08,8.28*12\r\n'
19272842284	36.67	924.79	0.0	0.05	-1.01	-0.46	3.47	11.53	-3.66	37.85	b'$GPGSV,4,1,13,02,14,041,17,04,04,327,17,05,16,089,12,11,10,038,21*73\r\n'
19347632180	36.66	924.83	0.0	0.12	-1.06	-0.41	2.4	13.52	-5.03	37.94	b'$GPGSV,4,2,13,12,10,112,19,16,03,296,19,18,42,177,26,20,16,056,07*7F\r\n'
19414823430	36.66	924.88	0.0	0.14	-1.0	-0.45	0.12	12.9	-1.53	37.85	b'$GPGSV,4,3,13,22,06,241,29,25,51,110,24,26,31,302,08,29,75,029,22*7E\r\n'
19448321034	36.66	924.88	0.0	0.08	-1.03	-0.42	1.43	13.69	-0.88	37.85	b'$GPGSV,4,4,13,31,55,264,23*48\r\n'
19522722284	36.65	924.93	0.0	0.06	-1.06	-0.43	-0.76	14.89	-2.56	37.85	b'$GLGSV,2,1,08,65,04,013,16,72,02,329,17,73,39,322,17,79,25,141,25*64\r\n'
19589572024	36.67	925.06	0.0	0.09	-1.01	-0.45	2.52	17.54	-4.66	37.85	b'$GLGSV,2,2,08,80,87,149,,81,23,036,16,82,75,029,10,83,54,218,*6F\r\n'
19644589107	36.67	925.06	0.0	0.12	-1.06	-0.41	-0.24	18.54	-4.1	37.75	b'$GNGLL,4435.94444,N,01139.09795,E,072019.00,A,A*7D\r\n'
19971945982	36.66	925.08	0.0	0.15	-1.06	-0.53	1.45	18.85	-2.26	37.85	b'$GNRMC,072020.00,A,4435.94401,N,01139.10504,E,15.552,101.17,220622,,,A*45\r\n'
20013749732	36.64	925.24	0.0	0.12	-1.05	-0.43	5.39	22.61	2.68	37.85	b'$GNVTG,101.17,T,,M,15.552,N,28.802,K,A*23\r\n'
20096694107	36.64	925.24	0.0	0.11	-1.1	-0.4	3.85	23.08	2.99	37.85	b'$GNGGA,072020.00,4435.94401,N,01139.10504,E,1,09,2.39,133.4,M,45.2,M,,*46\r\n'
20147052076	36.64	925.35	0.0	0.1	-1.02	-0.46	4.78	24.26	3.88	37.75	b'$GNGSA,A,3,05,18,02,12,31,22,,,,,,,6.30,2.39,5.83*10\r\n'
20197020461	36.66	925.32	0.0	0.08	-1.06	-0.42	3.69	25.68	2.45	37.75	b'$GNGSA,A,3,81,73,79,,,,,,,,,,6.30,2.39,5.83*1C\r\n'
20271853534	36.65	925.42	0.0	0.14	-1.09	-0.48	3.08	26.35	2.82	37.85	b'$GPGSV,4,1,13,02,14,041,19,04,04,327,21,05,16,089,16,11,10,038,20*7D\r\n'
20346581451	36.65	925.41	0.0	0.16	-1.12	-0.47	4.97	25.2	8.75	37.85	b'$GPGSV,4,2,13,12,10,112,17,16,03,296,23,18,42,177,25,20,16,056,*7C\r\n'
20413662961	36.64	925.4	0.0	0.08	-1.06	-0.49	3.73	26.16	7.93	37.75	b'$GPGSV,4,3,13,22,06,241,27,25,51,110,22,26,31,302,08,29,75,029,21*75\r\n'
20446911138	36.65	925.46	0.0	0.12	-1.09	-0.47	5.95	27.53	6.43	37.85	b'$GPGSV,4,4,13,31,55,264,26*4D\r\n'
20521747857	36.66	925.42	0.0	0.16	-1.1	-0.45	4.98	27.24	7.6	37.85	b'$GLGSV,2,1,08,65,04,013,17,72,02,329,27,73,39,322,29,79,25,141,22*6C\r\n'
20588412023	36.65	925.53	0.0	0.17	-1.07	-0.52	3.88	25.47	11.69	37.85	b'$GLGSV,2,2,08,80,87,149,,81,23,036,19,82,75,029,10,83,54,218,*60\r\n'
20643513065	36.64	925.46	0.0	0.11	-1.12	-0.49	3.78	25.43	11.1	37.85	b'$GNGLL,4435.94401,N,01139.10504,E,072020.00,A,A*74\r\n'
20971871138	36.65	925.57	0.0	0.14	-1.06	-0.38	1.98	25.91	9.27	37.85	b'$GNRMC,072021.00,A,4435.94249,N,01139.11119,E,16.152,107.71,220622,,,A*46\r\n'
21013656242	36.47	925.41	0.0	0.19	-1.08	-0.49	2.66	19.98	11.44	37.85	b'$GNVTG,107.71,T,,M,16.152,N,29.914,K,A*25\r\n'
21096661919	36.62	925.81	0.0	0.19	-1.1	-0.5	1.05	18.96	11.91	37.75	b'$GNGGA,072021.00,4435.94249,N,01139.11119,E,1,09,2.39,138.9,M,45.2,M,,*42\r\n'
21147019940	36.62	925.75	0.0	0.14	-1.07	-0.51	1.78	18.42	9.11	37.75	b'$GNGSA,A,3,05,18,02,12,31,25,,,,,,,6.30,2.39,5.82*16\r\n'
21196925252	36.63	925.79	0.0	0.17	-1.07	-0.47	1.16	17.99	7.27	37.85	b'$GNGSA,A,3,81,73,79,,,,,,,,,,6.30,2.39,5.82*1D\r\n'
21271778898	36.63	925.82	0.0	0.22	-1.06	-0.5	0.57	15.89	8.76	37.75	b'$GPGSV,4,1,13,02,14,041,20,04,04,327,20,05,16,089,25,11,10,038,18*7D\r\n'
21346650148	36.64	925.91	0.0	0.16	-1.06	-0.5	-0.72	13.73	8.4	37.75	b'$GPGSV,4,2,13,12,10,112,28,16,03,296,20,18,42,177,25,20,16,056,17*75\r\n'
21413387752	36.64	925.88	0.0	0.16	-1.1	-0.48	-0.3	13.47	5.55	37.85	b'$GPGSV,4,3,13,22,06,241,,25,51,110,23,26,31,302,,29,75,029,22*7A\r\n'
21446649211	36.63	925.87	0.0	0.18	-1.02	-0.5	-0.98	12.37	4.98	37.75	b'$GPGSV,4,4,13,31,55,264,24*4F\r\n'
21521492856	36.63	926.07	0.0	0.19	-1.05	-0.48	-0.03	11.47	5.66	37.85	b'$GLGSV,2,1,08,65,04,013,19,72,02,329,16,73,39,322,18,79,25,141,29*69\r\n'
21588250200	36.63	926.09	0.0	0.15	-1.05	-0.49	-3.11	10.21	3.55	37.85	b'$GLGSV,2,2,08,80,87,149,,81,23,036,19,82,75,029,11,83,54,218,*61\r\n'
21638480669	36.63	926.09	0.0	0.2	-1.04	-0.48	-0.84	8.74	4.11	37.85	b'$GNGLL,4435.94249,N,01139.11119,E,072021.00,A,A*76\r\n'
21972304002	36.64	926.1	0.0	0.2	-1.02	-0.44	-3.32	6.99	4.9	37.75	b'$GNRMC,072022.00,A,4435.94089,N,01139.11655,E,13.652,109.72,220622,,,A*4B\r\n'
22014114419	36.61	926.27	0.0	0.18	-0.98	-0.46	-4.44	-1.4	5.02	37.75	b'$GNVTG,109.72,T,,M,13.652,N,25.283,K,A*23\r\n'
22097132908	36.62	926.34	0.0	0.18	-0.99	-0.47	-4.76	-2.7	5.24	37.75	b'$GNGGA,072022.00,4435.94089,N,01139.11655,E,1,09,2.19,148.0,M,45.2,M,,*4C\r\n'
22147505877	36.61	926.36	0.0	0.16	-1.0	-0.52	-3.49	-4.88	6.4	37.85	b'$GNGSA,A,3,05,18,02,12,11,31,,,,,,,5.52,2.19,5.07*19\r\n'
22197411814	36.61	926.36	0.0	0.16	-1.03	-0.5	-2.04	-5.44	5.64	37.75	b'$GNGSA,A,3,81,73,79,,,,,,,,,,5.52,2.19,5.07*15\r\n'
22272254471	36.62	926.35	0.0	0.16	-1.0	-0.51	-1.16	-6.14	5.25	37.75	b'$GPGSV,4,1,13,02,14,041,18,04,04,327,21,05,16,089,23,11,10,038,18*71\r\n'
22347129731	36.62	926.4	0.0	0.13	-0.97	-0.47	-0.84	-6.46	2.95	37.85	b'$GPGSV,4,2,13,12,10,112,18,16,03,296,22,18,42,177,22,20,16,056,15*71\r\n'
22413957491	36.62	926.45	0.0	0.16	-0.91	-0.53	3.81	-7.15	2.47	37.75	b'$GPGSV,4,3,13,22,06,241,26,25,51,110,,26,31,302,20,29,75,029,20*7F\r\n'
22447204158	36.61	926.5	0.0	0.13	-1.04	-0.46	8.31	-7.73	2.09	37.85	b'$GPGSV,4,4,13,31,55,264,24*4F\r\n'
22522097648	36.62	926.51	0.0	0.11	-1.04	-0.46	4.76	-7.48	0.43	37.94	b'$GLGSV,2,1,08,65,04,013,19,72,02,329,18,73,39,322,19,79,25,141,20*6F\r\n'
22588866502	36.62	926.51	0.0	0.11	-0.94	-0.49	7.34	-6.76	-2.08	37.85	b'$GLGSV,2,2,08,80,87,149,,81,23,036,18,82,75,029,12,83,54,218,*63\r\n'
22643943273	36.61	926.52	0.0	0.12	-0.99	-0.46	8.95	-6.15	-3.63	37.85	b'$GNGLL,4435.94089,N,01139.11655,E,072022.00,A,A*74\r\n'
22972499002	36.61	926.61	0.0	0.13	-0.95	-0.51	10.5	-6.08	-3.46	37.85	b'$GNRMC,072023.00,A,4435.94071,N,01139.12252,E,12.389,104.48,220622,,,A*4B\r\n'
23014266710	36.6	926.81	0.0	0.1	-1.16	-0.46	0.63	-3.77	-2.75	37.85	b'$GNVTG,104.48,T,,M,12.389,N,22.944,K,A*22\r\n'
23097266658	36.61	926.76	0.0	0.08	-1.06	-0.46	-2.78	-2.79	-4.1	37.85	b'$GNGGA,072023.00,4435.94071,N,01139.12252,E,1,10,2.19,156.9,M,45.2,M,,*44\r\n'
23155585772	36.6	926.86	0.0	0.12	-1.0	-0.48	1.76	-1.57	-4.24	37.66	b'$GNGSA,A,3,05,18,02,12,11,31,22,,,,,,5.52,2.19,5.07*19\r\n'
23205529262	36.6	926.81	0.0	0.13	-1.05	-0.47	-0.56	-1.62	-3.19	37.85	b'$GNGSA,A,3,81,73,79,,,,,,,,,,5.52,2.19,5.07*15\r\n'
23272515772	36.61	926.9	0.0	0.09	-1.04	-0.47	-1.43	-1.21	-3.2	37.85	b'$GPGSV,4,1,13,02,14,041,17,04,04,327,24,05,16,089,20,11,10,038,17*77\r\n'
23347413793	36.61	926.96	0.0	0.11	-1.02	-0.48	-1.24	0.2	-4.98	37.75	b'$GPGSV,4,2,13,12,10,112,19,16,03,296,23,18,42,177,20,20,16,056,13*75\r\n'
23422103324	36.61	926.98	0.0	0.13	-0.88	-0.46	1.29	-0.22	-2.36	37.85	b'$GPGSV,4,3,13,22,06,241,24,25,51,110,,26,31,302,24,29,75,029,21*78\r\n'
23452969314	36.61	927.01	0.0	0.09	-1.01	-0.47	-0.27	0.57	-2.67	37.85	b'$GPGSV,4,4,13,31,55,264,24*4F\r\n'
23522416241	36.62	927.02	0.0	0.08	-1.0	-0.45	-0.49	1.33	-3.51	37.75	b'$GLGSV,2,1,08,65,04,013,19,72,02,329,23,73,39,322,23,79,25,141,20*6E\r\n'
23589143741	36.61	927.13	0.0	0.11	-0.99	-0.46	-0.31	2.62	-4.52	37.75	b'$GLGSV,2,2,08,80,87,149,,81,23,036,16,82,75,029,15,83,54,218,*6A\r\n'
23646429106	36.61	927.1	0.0	0.14	-1.02	-0.44	1.4	2.12	-1.31	37.85	b'$GNGLL,4435.94071,N,01139.12252,E,072023.00,A,A*72\r\n'
23970325147	36.61	927.09	0.0	0.11	-1.0	-0.47	-0.15	2.5	-0.69	37.85	b'$GNRMC,072024.00,A,4435.94106,N,01139.12986,E,15.765,88.76,220622,,,A*76\r\n'
24012096762	36.6	927.33	0.0	0.07	-0.99	-0.43	2.4	4.71	0.47	37.85	b'$GNVTG,88.76,T,,M,15.765,N,29.198,K,A*19\r\n'
24087311762	36.6	927.32	0.0	0.08	-0.97	-0.41	0.95	5.89	-1.3	37.85	b'$GNGGA,072024.00,4435.94106,N,01139.12986,E,1,09,2.97,160.9,M,45.2,M,,*4B\r\n'
24145446605	36.6	927.35	0.0	0.12	-0.97	-0.47	3.25	6.75	-0.81	37.75	b'$GNGSA,A,3,05,18,02,12,11,31,,,,,,,7.41,2.97,6.78*14\r\n'
24195410928	36.6	927.41	0.0	0.11	-1.02	-0.41	1.37	7.06	-0.31	37.85	b'$GNGSA,A,3,81,73,79,,,,,,,,,,7.41,2.97,6.78*18\r\n'
24270185564	36.61	927.42	0.0	0.08	-0.95	-0.43	-0.1	7.89	-0.76	37.75	b'$GPGSV,4,1,13,02,14,041,14,04,04,327,26,05,16,089,19,11,10,038,16*7D\r\n'
24345025824	36.61	927.42	0.0	0.09	-0.93	-0.41	2.64	9.37	-1.66	37.85	b'$GPGSV,4,2,13,12,10,112,20,16,03,296,25,18,42,177,19,20,16,056,10*70\r\n'
24411809418	36.6	927.48	0.0	0.11	-0.97	-0.44	-0.6	11.08	-3.75	37.75	b'$GPGSV,4,3,13,22,06,241,,25,51,110,,26,31,302,27,29,75,029,21*7D\r\n'
24445031449	36.6	927.46	0.0	0.13	-0.96	-0.45	4.69	11.49	-2.04	37.75	b'$GPGSV,4,4,13,31,55,264,26*4D\r\n'
24512032386	36.61	927.55	0.0	0.1	-1.03	-0.38	3.36	11.48	-1.97	37.75	b'$GLGSV,2,1,08,65,04,013,20,72,02,329,26,73,39,322,25,79,25,141,17*63\r\n'
24586599730	36.6	927.57	0.0	0.11	-0.97	-0.47	-1.95	12.74	-3.46	37.75	b'$GLGSV,2,2,08,80,87,149,,81,23,036,14,82,75,029,13,83,54,218,*6E\r\n'
24638159418	36.6	927.57	0.0	0.12	-1.04	-0.41	5.0	12.71	-1.19	37.75	b'$GNGLL,4435.94106,N,01139.12986,E,072024.00,A,A*76\r\n'
24970556657	36.61	927.58	0.0	0.08	-1.05	-0.41	0.79	13.76	-2.93	37.85	b'$GNRMC,072025.00,A,4435.94072,N,01139.13908,E,17.322,95.37,220622,,,A*7E\r\n'
25012350980	36.58	927.79	0.0	0.11	-1.01	-0.42	-2.61	18.44	-2.07	37.85	b'$GNVTG,95.37,T,,M,17.322,N,32.080,K,A*17\r\n'
25087553167	36.59	927.77	0.0	0.12	-1.02	-0.46	-0.88	18.91	-1.35	37.75	b'$GNGGA,072025.00,4435.94072,N,01139.13908,E,1,09,2.39,170.1,M,45.2,M,,*42\r\n'
25145691553	36.59	927.88	0.0	0.1	-1.08	-0.4	-2.7	20.59	-2.38	37.75	b'$GNGSA,A,3,05,18,02,12,11,31,,,,,,,6.29,2.39,5.82*19\r\n'
25195661292	36.59	927.86	0.0	0.14	-1.03	-0.45	-1.46	21.39	-1.63	37.75	b'$GNGSA,A,3,81,73,79,,,,,,,,,,6.29,2.39,5.82*15\r\n'
25270422855	36.6	927.92	0.0	0.11	-1.05	-0.43	0.16	21.77	-0.36	37.85	b'$GPGSV,4,1,13,02,14,041,28,04,04,327,27,05,16,089,18,11,10,038,22*75\r\n'
25345269522	36.59	927.99	0.0	0.12	-1.06	-0.49	-0.01	23.26	-1.23	37.75	b'$GPGSV,4,2,13,12,10,112,20,16,03,296,25,18,42,177,18,20,16,056,16*77\r\n'
25412027803	36.58	927.94	0.0	0.15	-1.14	-0.42	-1.16	23.73	1.11	37.85	b'$GPGSV,4,3,13,22,06,241,,25,51,110,,26,31,302,27,29,75,029,20*7C\r\n'
25445255251	36.58	927.98	0.0	0.14	-1.06	-0.51	-0.24	23.83	3.85	37.75	b'$GPGSV,4,4,13,31,55,264,26*4D\r\n'
25512300980	36.58	928.0	0.0	0.13	-1.12	-0.48	1.95	24.09	4.95	37.75	b'$GLGSV,2,1,08,65,04,013,23,72,02,329,27,73,39,322,26,79,25,141,16*63\r\n'
25586876761	36.59	928.04	0.0	0.11	-1.11	-0.48	-0.84	25.41	4.53	37.85	b'$GLGSV,2,2,08,80,87,149,,81,23,036,29,82,75,029,11,83,54,218,*62\r\n'
25638444469	36.58	928.02	0.0	0.13	-1.08	-0.48	2.13	26.38	4.68	37.85	b'$GNGLL,4435.94072,N,01139.13908,E,072025.00,A,A*72\r\n'
25970702490	36.58	928.05	0.0	0.14	-1.11	-0.44	0.41	26.66	5.0	37.85	b'$GNRMC,072026.00,A,4435.93928,N,01139.14687,E,16.612,101.47,220622,,,A*4F\r\n'
26012661865	36.57	928.28	0.0	0.15	-1.03	-0.47	2.32	24.74	8.94	37.85	b'$GNVTG,101.47,T,,M,16.612,N,30.765,K,A*25\r\n'
26095496813	36.57	928.32	0.0	0.16	-1.03	-0.46	2.06	24.03	9.38	37.75	b'$GNGGA,072026.00,4435.93928,N,01139.14687,E,1,09,2.19,180.1,M,45.2,M,,*42\r\n'
26145918011	36.58	928.35	0.0	0.19	-1.07	-0.5	0.76	22.39	9.59	37.75	b'$GNGSA,A,3,05,18,02,12,11,31,,,,,,,5.52,2.19,5.06*18\r\n'
26195896292	36.58	928.32	0.0	0.17	-1.08	-0.5	1.65	21.18	10.34	37.75	b'$GNGSA,A,3,81,73,79,,,,,,,,,,5.52,2.19,5.06*14\r\n'
26270637959	36.58	928.36	0.0	0.15	-1.07	-0.48	-0.23	20.44	9.39	37.75	b'$GPGSV,4,1,13,02,14,041,19,04,04,327,23,05,16,089,21,11,10,038,19*71\r\n'
26345525407	36.57	928.42	0.0	0.17	-1.04	-0.48	-0.37	19.59	8.24	37.75	b'$GPGSV,4,2,13,12,10,112,28,16,04,296,22,18,42,177,21,20,16,056,20*70\r\n'
26412480823	36.58	928.51	0.0	0.18	-1.01	-0.48	-1.15	17.86	8.94	37.75	b'$GPGSV,4,3,13,22,06,241,,25,51,110,23,26,31,302,24,29,75,029,22*7C\r\n'
26445704417	36.47	928.33	0.0	0.18	-1.05	-0.49	-2.54	16.23	9.19	37.75	b'$GPGSV,4,4,13,31,55,264,23*48\r\n'
26520487177	36.57	928.53	0.0	0.16	-1.05	-0.5	-2.4	15.69	8.73	37.85	b'$GLGSV,2,1,08,65,04,013,22,72,02,329,24,73,39,322,23,79,25,141,28*69\r\n'
26587190146	36.56	928.55	0.0	0.16	-0.99	-0.48	1.04	14.89	6.63	37.75	b'$GLGSV,2,2,08,80,87,149,,81,23,036,21,82,75,029,13,83,54,218,*68\r\n'
26642305927	36.57	928.55	0.0	0.2	-0.96	-0.45	-3.1	13.05	5.98	37.66	b'$GNGLL,4435.93928,N,01139.14687,E,072026.00,A,A*7F\r\n'
26970461500	36.57	928.66	0.0	0.19	-0.97	-0.48	-1.74	11.43	7.93	37.75	b'$GNRMC,072027.00,A,4435.93822,N,01139.15334,E,14.981,101.10,220622,,,A*4C\r\n'
27013483271	36.55	928.78	0.0	0.23	-1.06	-0.49	-3.9	3.37	7.81	37.66	b'$GNVTG,101.10,T,,M,14.981,N,27.744,K,A*25\r\n'
27095388323	36.56	928.78	0.0	0.19	-1.04	-0.52	-2.98	1.48	9.3	37.75	b'$GNGGA,072027.00,4435.93822,N,01139.15334,E,1,09,3.19,190.1,M,45.2,M,,*44\r\n'
27145583427	36.56	928.93	0.0	0.12	-1.03	-0.48	-3.39	1.5	4.57	37.85	b'$GNGSA,A,3,05,18,02,12,11,31,,,,,,,7.70,3.19,7.00*1F\r\n'
27195553427	36.56	928.86	0.0	0.17	-1.0	-0.51	-3.4	1.02	3.15	37.75	b'$GNGSA,A,3,81,73,79,,,,,,,,,,7.70,3.19,7.00*13\r\n'
27270470042	36.56	928.92	0.0	0.18	-0.99	-0.52	0.06	-0.59	4.66	37.85	b'$GPGSV,4,1,13,02,14,041,17,04,04,327,23,05,16,089,18,11,10,038,18*74\r\n'
27345210354	36.56	928.92	0.0	0.15	-0.94	-0.48	1.09	-2.42	4.69	37.85	b'$GPGSV,4,2,13,12,10,112,17,16,04,296,20,18,42,177,21,20,16,056,18*75\r\n'
27412101812	36.56	928.95	0.0	0.16	-0.98	-0.49	2.38	-3.98	4.11	37.75	b'$GPGSV,4,3,13,22,06,241,,25,51,110,20,26,31,302,23,29,75,029,20*7A\r\n'
27458355042	36.56	928.98	0.0	0.12	-0.98	-0.53	2.97	-4.57	1.12	37.85	b'$GPGSV,4,4,13,31,55,264,22*49\r\n'
27520045875	36.56	929.06	0.0	0.13	-0.97	-0.53	5.66	-4.73	0.0	37.75	b'$GLGSV,2,1,08,65,04,013,22,72,02,329,,73,39,322,25,79,25,141,20*61\r\n'
27586801969	36.56	929.06	0.0	0.19	-1.04	-0.49	5.44	-6.73	1.36	37.75	b'$GLGSV,2,2,08,80,87,149,,81,23,036,20,82,75,029,14,83,54,218,*6E\r\n'
27637137073	36.56	929.14	0.0	0.13	-1.02	-0.5	4.8	-8.67	2.4	37.75	b'$GNGLL,4435.93822,N,01139.15334,E,072027.00,A,A*79\r\n'
27971178271	36.56	929.09	0.0	0.08	-0.97	-0.5	6.17	-7.86	-0.52	37.75	b'$GNRMC,072028.00,A,4435.93827,N,01139.16029,E,15.359,89.93,220622,,,A*7E\r\n'
28012965146	36.54	929.24	0.0	0.09	-1.08	-0.5	2.59	-5.63	-4.99	37.75	b'$GNVTG,89.93,T,,M,15.359,N,28.445,K,A*1C\r\n'
28088277229	36.55	929.29	0.0	0.11	-1.1	-0.52	2.32	-4.92	-5.97	37.75	b'$GNGGA,072028.00,4435.93827,N,01139.16029,E,1,09,2.97,198.0,M,45.2,M,,*4C\r\n'
28146248323	36.55	929.48	0.0	0.14	-1.08	-0.48	2.61	-5.33	-4.04	37.85	b'$GNGSA,A,3,05,18,02,12,11,31,,,,,,,7.38,2.97,6.76*14\r\n'
28196217437	36.55	929.48	0.0	0.14	-1.06	-0.48	-0.69	-5.78	-2.66	37.75	b'$GNGSA,A,3,81,73,79,,,,,,,,,,7.38,2.97,6.76*18\r\n'
28271047177	36.55	929.48	0.0	0.09	-1.02	-0.52	0.24	-5.49	-2.54	37.75	b'$GPGSV,4,1,13,02,14,041,23,04,04,327,22,05,16,089,17,11,10,038,22*74\r\n'
28345860822	36.55	929.54	0.0	0.08	-1.07	-0.47	4.79	-2.4	-6.07	37.85	b'$GPGSV,4,2,13,12,10,112,14,16,04,296,20,18,43,177,20,20,16,056,20*7D\r\n'
28412765718	36.55	929.54	0.0	0.16	-0.99	-0.47	0.69	-2.2	-4.11	37.75	b'$GPGSV,4,3,13,22,06,241,,25,51,110,19,26,31,302,20,29,75,029,21*72\r\n'
28446089052	36.55	929.56	0.0	0.09	-0.99	-0.47	2.53	-2.26	-1.35	37.75	b'$GPGSV,4,4,13,31,55,264,19*41\r\n'
28512901604	36.56	929.63	0.0	0.05	-1.04	-0.47	2.53	-0.88	-3.45	37.75	b'$GLGSV,2,1,08,65,04,013,25,72,02,329,,73,39,322,24,79,25,141,18*6C\r\n'
28587457124	36.56	929.63	0.0	0.09	-1.0	-0.46	4.93	1.53	-6.38	37.75	b'$GLGSV,2,2,08,80,87,149,,81,23,036,30,82,75,029,15,83,54,218,*6E\r\n'
28639032697	36.55	929.64	0.0	0.15	-1.04	-0.44	2.54	1.23	-3.94	37.75	b'$GNGLL,4435.93827,N,01139.16029,E,072028.00,A,A*7F\r\n'
28968714208	36.56	929.71	0.0	0.14	-1.03	-0.47	1.44	0.73	-3.91	37.66	b'$GNRMC,072029.00,A,4435.93858,N,01139.17453,E,18.388,90.55,220622,,,A*7C\r\n'
29010497958	36.53	929.86	0.0	0.11	-1.0	-0.41	-0.04	3.16	-1.42	37.75	b'$GNVTG,90.55,T,,M,18.388,N,34.055,K,A*17\r\n'
29085620666	36.53	929.85	0.0	0.09	-0.97	-0.41	-1.41	3.89	-2.48	37.66	b'$GNGGA,072029.00,4435.93858,N,01139.17453,E,1,09,1.30,221.0,M,45.2,M,,*42\r\n'
29143767281	36.54	929.9	0.0	0.09	-0.98	-0.4	-2.1	5.7	-4.97	37.75	b'$GNGSA,A,3,05,18,02,11,31,25,,,,,,,2.99,1.30,2.70*12\r\n'
29193740978	36.54	929.93	0.0	0.15	-0.97	-0.42	-4.15	5.77	-4.53	37.75	b'$GNGSA,A,3,81,73,79,,,,,,,,,,2.99,1.30,2.70*1A\r\n'
29268633895	36.54	929.93	0.0	0.15	-0.97	-0.43	-2.36	4.85	-1.76	37.75	b'$GPGSV,4,1,13,02,14,041,25,04,04,327,25,05,16,089,14,11,10,038,25*71\r\n'
29335462333	36.54	929.98	0.0	0.09	-1.03	-0.42	-4.74	6.1	-3.6	37.75	b'$GPGSV,4,2,13,12,10,112,,16,04,296,20,18,43,177,16,20,16,056,22*7F\r\n'
29410158687	36.54	930.03	0.0	0.13	-1.02	-0.47	-2.88	7.17	-5.08	37.75	b'$GPGSV,4,3,13,22,06,241,,25,51,110,16,26,31,302,23,29,75,029,21*7E\r\n'
29443394624	36.54	929.98	0.0	0.15	-1.08	-0.45	-2.91	6.62	-3.34	37.75	b'$GPGSV,4,4,13,31,55,264,22*49\r\n'
29510299624	36.55	930.05	0.0	0.15	-1.07	-0.47	-2.69	6.44	-2.88	37.75	b'$GLGSV,2,1,08,65,04,013,26,72,02,329,,73,39,322,26,79,25,141,18*6D\r\n'
29577156343	36.54	930.04	0.0	0.13	-1.1	-0.43	-2.97	6.48	-2.91	37.66	b'$GLGSV,2,2,08,80,87,149,,81,23,036,29,82,75,029,15,83,54,218,*66\r\n'
29634342905	36.55	930.1	0.0	0.14	-1.04	-0.45	-5.15	6.92	-3.53	37.66	b'$GNGLL,4435.93858,N,01139.17453,E,072029.00,A,A*7E\r\n'
29970538426	36.54	930.09	0.0	0.13	-1.04	-0.46	-2.03	7.3	-3.71	37.66	b'$GNRMC,072030.00,A,4435.93686,N,01139.18332,E,14.634,103.11,220622,,,A*43\r\n'
30012418686	36.52	930.34	0.0	0.19	-1.04	-0.42	-7.15	4.81	-3.89	37.85	b'$GNVTG,103.11,T,,M,14.634,N,27.102,K,A*23\r\n'
30095284988	36.52	930.31	0.0	0.17	-1.06	-0.42	-8.65	3.73	-0.92	37.85	b'$GNGGA,072030.00,4435.93686,N,01139.18332,E,1,10,1.30,236.9,M,45.2,M,,*4F\r\n'
30153585145	36.54	930.36	0.0	0.15	-1.04	-0.45	-6.97	3.26	-1.77	37.75	b'$GNGSA,A,3,26,05,18,02,11,31,25,,,,,,2.99,1.30,2.70*16\r\n'
30203556603	36.53	930.43	0.0	0.16	-1.07	-0.48	-6.06	2.47	-1.99	37.75	b'$GNGSA,A,3,81,73,79,,,,,,,,,,2.99,1.30,2.70*1A\r\n'
30270591811	36.53	930.37	0.0	0.18	-1.11	-0.47	-6.82	1.6	-2.05	37.66	b'$GPGSV,4,1,13,02,14,041,27,04,04,327,25,05,16,089,18,11,10,038,27*7D\r\n'
30345297801	36.54	930.47	0.0	0.2	-1.1	-0.46	-5.08	-0.5	-0.11	37.75	b'$GPGSV,4,2,13,12,10,112,,16,04,296,21,18,43,177,17,20,16,056,23*7E\r\n'
30412179520	36.54	930.52	0.0	0.19	-1.03	-0.46	-4.89	-3.18	2.1	37.75	b'$GPGSV,4,3,13,22,06,241,,25,51,110,15,26,31,302,24,29,75,029,20*7B\r\n'
30445509520	36.53	930.56	0.0	0.18	-1.09	-0.48	-4.15	-4.75	2.7	37.75	b'$GPGSV,4,4,13,31,55,264,21*4A\r\n'
30520121238	36.53	930.57	0.0	0.17	-1.1	-0.47	-4.41	-5.3	2.25	37.75	b'$GLGSV,2,1,08,65,04,013,26,72,02,329,,73,39,322,25,79,25,141,16*60\r\n'
30586886811	36.53	930.62	0.0	0.21	-1.03	-0.47	-3.42	-7.26	2.95	37.75	b'$GLGSV,2,2,08,80,87,149,,81,23,036,29,82,75,029,13,83,54,218,*60\r\n'
30637215561	36.52	930.69	0.0	0.19	-1.06	-0.47	-2.84	-9.31	4.17	37.75	b'$GNGLL,4435.93686,N,01139.18332,E,072030.00,A,A*74\r\n'
30972616915	36.53	930.72	0.0	0.18	-1.05	-0.49	-0.97	-10.34	3.92	37.75	b'$GNRMC,072031.00,A,4435.93747,N,01139.19272,E,13.307,94.97,220622,,,A*79\r\n'
31014400717	36.5	930.85	0.0	0.18	-1.08	-0.5	0.49	-15.38	-5.11	37.85	b'$GNVTG,94.97,T,,M,13.307,N,24.644,K,A*16\r\n'
31089512176	36.52	930.98	0.0	0.18	-1.06	-0.53	2.05	-16.66	-4.63	37.85	b'$GNGGA,072031.00,4435.93747,N,01139.19272,E,1,09,1.30,255.4,M,45.2,M,,*46\r\n'
31147743686	36.51	930.91	0.0	0.15	-1.02	-0.47	2.87	-17.49	-7.16	37.66	b'$GNGSA,A,3,05,18,02,11,31,25,,,,,,,2.99,1.30,2.70*12\r\n'
31197710144	36.52	930.98	0.0	0.17	-1.01	-0.49	2.15	-18.28	-8.55	37.66	b'$GNGSA,A,3,81,73,79,,,,,,,,,,2.99,1.30,2.70*1A\r\n'
31272519832	36.51	930.95	0.0	0.19	-1.0	-0.48	3.41	-19.85	-7.11	37.75	b'$GPGSV,4,1,13,02,14,041,27,04,04,327,22,05,16,089,23,11,10,038,27*72\r\n'
31347321759	36.52	931.04	0.0	0.14	-0.96	-0.46	1.8	-21.4	-6.42	37.75	b'$GPGSV,4,2,13,12,10,112,22,16,04,296,18,18,43,177,15,20,16,056,22*77\r\n'
31414102696	36.52	931.09	0.0	0.11	-0.96	-0.47	4.68	-20.66	-8.69	37.75	b'$GPGSV,4,3,13,22,06,241,,25,51,110,14,26,31,302,,29,75,029,19*76\r\n'
31447328998	36.53	931.1	0.0	0.13	-0.99	-0.44	2.58	-20.15	-9.74	37.66	b'$GPGSV,4,4,13,31,55,264,20*4B\r\n'
31514277644	36.52	931.12	0.0	0.15	-0.98	-0.46	2.04	-20.24	-8.9	37.75	b'$GLGSV,2,1,08,65,04,013,24,72,02,329,,73,39,322,23,79,25,141,17*65\r\n'
31580960457	36.52	931.12	0.0	0.25	-0.99	-0.45	3.36	-20.08	-7.23	37.66	b'$GLGSV,2,2,08,80,87,149,,81,23,036,27,82,75,029,12,83,54,218,*6F\r\n'
31638220925	36.52	931.2	0.0	0.09	-1.0	-0.45	1.9	-18.37	-8.29	37.75	b'$GNGLL,4435.93747,N,01139.19272,E,072031.00,A,A*7D\r\n'
31973034259	36.52	931.14	0.0	0.08	-0.98	-0.44	1.98	-16.37	-9.53	37.75	b'$GNRMC,072032.00,A,4435.93883,N,01139.20355,E,13.834,86.19,220622,,,A*7D\r\n'
32014823165	36.5	931.39	0.0	0.14	-0.99	-0.46	1.32	-11.36	-5.95	37.66	b'$GNVTG,86.19,T,,M,13.834,N,25.620,K,A*1B\r\n'
32090035977	36.48	931.27	0.0	0.12	-1.01	-0.47	3.21	-10.84	-5.54	37.75	b'$GNGGA,072032.00,4435.93883,N,01139.20355,E,1,09,1.30,278.5,M,45.2,M,,*42\r\n'
32148101186	36.51	931.37	0.0	0.25	-1.04	-0.42	1.7	-9.69	-5.93	37.75	b'$GNGSA,A,3,05,18,02,11,31,25,,,,,,,2.99,1.30,2.70*12\r\n'
32198071602	36.52	931.42	0.0	0.15	-0.98	-0.43	0.93	-9.37	-5.02	37.75	b'$GNGSA,A,3,81,73,79,,,,,,,,,,2.99,1.30,2.70*1A\r\n'
32272947488	36.51	931.37	0.0	0.13	-0.98	-0.42	1.79	-9.25	-4.04	37.75	b'$GPGSV,4,1,13,02,14,041,24,04,04,327,23,05,16,089,21,11,10,038,24*71\r\n'
32347745977	36.51	931.46	0.0	0.1	-0.95	-0.41	-0.15	-7.69	-5.95	37.75	b'$GPGSV,4,2,13,12,10,112,21,16,04,296,21,18,43,177,19,20,16,056,20*70\r\n'
32414683425	36.52	931.53	0.0	0.15	-0.96	-0.42	0.28	-7.4	-5.42	37.75	b'$GPGSV,4,3,13,22,05,241,,25,51,110,13,26,31,302,23,29,75,029,19*73\r\n'
32447906394	36.51	931.54	0.0	0.15	-0.96	-0.41	-2.95	-7.69	-4.48	37.66	b'$GPGSV,4,4,13,31,55,264,21*4A\r\n'
32514868894	36.52	931.53	0.0	0.16	-0.93	-0.45	-1.51	-7.95	-3.5	37.75	b'$GLGSV,2,1,08,65,04,013,23,72,02,329,,73,39,322,23,79,25,141,18*6D\r\n'
32589319831	36.52	931.59	0.0	0.14	-0.98	-0.4	1.63	-8.21	-2.49	37.66	b'$GLGSV,2,2,08,80,87,149,,81,23,036,23,82,75,029,12,83,54,218,*6B\r\n'
32640801810	36.52	931.63	0.0	0.15	-0.96	-0.43	-2.87	-8.11	-3.62	37.66	b'$GNGLL,4435.93883,N,01139.20355,E,072032.00,A,A*77\r\n'
32972278164	36.52	931.72	0.0	0.18	-0.92	-0.44	0.59	-8.94	-1.87	37.66	b'$GNRMC,072033.00,A,4435.94052,N,01139.21551,E,15.952,80.14,220622,,,A*70\r\n'
33014069675	36.49	931.87	0.0	0.18	-1.12	-0.46	1.33	-12.05	-3.15	37.75	b'$GNVTG,80.14,T,,M,15.952,N,29.544,K,A*1A\r\n'
33089270873	36.49	931.79	0.0	0.18	-1.03	-0.43	-0.32	-12.85	-2.98	37.66	b'$GNGGA,072033.00,4435.94052,N,01139.21551,E,1,10,1.31,303.8,M,45.2,M,,*4A\r\n'
33147472539	36.5	931.88	0.0	0.15	-0.93	-0.46	0.27	-14.02	-2.69	37.66	b'$GNGSA,A,3,05,18,02,12,11,31,25,,,,,,2.79,1.31,2.46*1B\r\n'
33197439519	36.49	931.92	0.0	0.15	-0.93	-0.46	1.87	-13.88	-4.7	37.75	b'$GNGSA,A,3,81,73,79,,,,,,,,,,2.79,1.31,2.46*10\r\n'
33272338581	36.49	931.92	0.0	0.17	-0.94	-0.45	2.96	-14.25	-5.28	37.75	b'$GPGSV,4,1,13,02,14,041,21,04,04,327,21,05,16,089,21,11,10,038,21*73\r\n'
33347141602	36.5	931.96	0.0	0.19	-0.99	-0.44	1.83	-16.21	-3.38	37.66	b'$GPGSV,4,2,13,12,10,112,21,16,04,296,19,18,43,177,22,20,16,056,17*77\r\n'
33414076237	36.49	932.03	0.0	0.14	-0.96	-0.46	1.73	-17.1	-3.29	37.66	b'$GPGSV,4,3,13,22,05,241,,25,51,110,17,26,31,302,20,29,75,029,19*74\r\n'
33447315768	36.49	932.06	0.0	0.14	-0.94	-0.46	3.75	-16.63	-5.2	37.75	b'$GPGSV,4,4,13,31,55,264,19*41\r\n'
33521970091	36.51	932.05	0.0	0.14	-0.97	-0.44	3.26	-16.58	-5.73	37.75	b'$GLGSV,2,1,08,65,04,013,20,72,02,329,,73,39,322,21,79,25,141,23*64\r\n'
33588707435	36.5	932.12	0.0	0.16	-0.96	-0.46	0.97	-17.15	-5.03	37.66	b'$GLGSV,2,2,08,80,87,149,,81,23,036,22,82,75,029,12,83,54,218,*6A\r\n'
33638860664	36.49	932.16	0.0	0.16	-0.97	-0.5	5.62	-17.86	-2.86	37.57	b'$GNGLL,4435.94052,N,01139.21551,E,072033.00,A,A*76\r\n'
33972083008	36.5	932.09	0.0	0.11	-1.03	-0.43	4.87	-17.39	-3.51	37.75	b'$GNRMC,072034.00,A,4435.94160,N,01139.22938,E,17.899,82.78,220622,,,A*7B\r\n'
34013844518	36.48	932.36	0.0	0.12	-0.98	-0.45	1.93	-10.83	-6.84	37.66	b'$GNVTG,82.78,T,,M,17.899,N,33.149,K,A*14\r\n'
34089010039	36.48	932.31	0.0	0.13	-0.96	-0.46	3.15	-10.55	-5.29	37.75	b'$GNGGA,072034.00,4435.94160,N,01139.22938,E,1,09,1.36,332.6,M,45.2,M,,*4E\r\n'
34147215768	36.49	932.38	0.0	0.08	-0.98	-0.42	4.05	-8.89	-5.06	37.75	b'$GNGSA,A,3,05,18,02,12,11,31,25,,,,,,2.77,1.36,2.41*15\r\n'
34197023112	36.48	932.36	0.0	0.1	-0.99	-0.44	2.15	-6.99	-6.6	37.66	b'$GNGSA,A,3,81,79,,,,,,,,,,,2.77,1.36,2.41*1A\r\n'
34271894049	36.47	932.38	0.0	0.12	-1.02	-0.44	1.79	-6.07	-6.35	37.57	b'$GPGSV,4,1,13,02,14,041,29,04,04,327,19,05,16,089,24,11,10,038,28*7C\r\n'
34346820716	36.48	932.44	0.0	0.12	-0.97	-0.44	-0.41	-5.44	-4.66	37.75	b'$GPGSV,4,2,13,12,10,112,24,16,04,296,18,18,43,177,20,20,16,056,22*77\r\n'
34413573633	36.48	932.42	0.0	0.09	-0.96	-0.4	0.67	-3.57	-5.64	37.66	b'$GPGSV,4,3,13,22,05,241,,25,51,110,20,26,31,302,18,29,75,029,21*70\r\n'
34446833737	36.49	932.49	0.0	0.14	-0.99	-0.43	-2.97	-2.42	-6.18	37.66	b'$GPGSV,4,4,13,31,55,264,19*41\r\n'
34513758633	36.49	932.49	0.0	0.14	-1.01	-0.46	-2.18	-2.37	-5.07	37.75	b'$GLGSV,2,1,08,65,04,013,20,72,02,329,,73,39,322,,79,25,141,22*66\r\n'
34580287174	36.48	932.48	0.0	0.11	-1.1	-0.48	-2.18	-1.31	-5.6	37.66	b'$GLGSV,2,2,08,80,87,149,,81,23,036,29,82,75,029,13,83,54,218,*60\r\n'
34637626653	36.49	932.52	0.0	0.14	-1.04	-0.45	-2.76	-0.21	-6.79	37.75	b'$GNGLL,4435.94160,N,01139.22938,E,072034.00,A,A*71\r\n'
34971116393	36.47	932.65	0.0	0.16	-1.0	-0.42	-2.9	-1.02	-4.5	37.75	b'$GNRMC,072035.00,A,4435.94061,N,01139.24438,E,18.109,96.43,220622,,,A*73\r\n'
35012863164	36.46	932.8	0.0	0.17	-0.96	-0.45	-4.82	-3.31	-1.97	37.75	b'$GNVTG,96.43,T,,M,18.109,N,33.537,K,A*1B\r\n'
35088078476	36.48	932.88	0.0	0.18	-1.0	-0.41	-5.44	-4.11	-1.1	37.66	b'$GNGGA,072035.00,4435.94061,N,01139.24438,E,1,10,1.06,363.0,M,45.2,M,,*4D\r\n'
35154294726	36.48	932.82	0.0	0.16	-1.07	-0.48	-11.18	-5.43	-1.05	37.75	b'$GNGSA,A,3,26,05,18,02,12,11,31,25,,,,,2.39,1.06,2.14*18\r\n'
35196366809	36.48	932.91	0.0	0.17	-1.05	-0.51	-2.7	-5.77	-1.65	37.75	b'$GNGSA,A,3,81,79,,,,,,,,,,,2.39,1.06,2.14*13\r\n'
35271169674	36.48	932.93	0.0	0.19	-1.08	-0.45	-3.28	-6.82	-0.98	37.66	b'$GPGSV,4,1,13,02,14,041,27,04,04,327,22,05,16,089,22,11,10,038,27*73\r\n'
35345991028	36.48	933.02	0.0	0.18	-0.97	-0.49	-4.46	-8.6	-0.24	37.66	b'$GPGSV,4,2,13,12,10,112,21,16,04,296,19,18,43,177,18,20,16,056,22*78\r\n'
35412823580	36.48	933.04	0.0	0.2	-0.97	-0.45	-1.7	-10.27	0.41	37.75	b'$GPGSV,4,3,13,22,05,241,,25,50,111,17,26,31,302,19,29,75,029,19*7E\r\n'
35446067539	36.47	933.0	0.0	0.21	-0.95	-0.49	2.27	-12.97	3.79	37.66	b'$GPGSV,4,4,13,31,55,264,21*4A\r\n'
35512998528	36.47	933.05	0.0	0.17	-1.0	-0.46	3.23	-13.79	4.05	37.75	b'$GLGSV,2,1,08,65,04,013,25,72,02,329,,73,39,322,,79,25,141,20*61\r\n'
35587438007	36.48	933.1	0.0	0.13	-0.98	-0.46	1.63	-14.21	1.66	37.66	b'$GLGSV,2,2,08,80,87,149,,81,23,036,28,82,75,029,13,83,54,218,*61\r\n'
35638966861	36.47	933.06	0.0	0.18	-0.98	-0.49	5.42	-15.24	1.29	37.66	b'$GNGLL,4435.94061,N,01139.24438,E,072035.00,A,A*7B\r\n'
35971620559	36.48	933.18	0.0	0.18	-1.05	-0.5	6.83	-16.5	2.21	37.75	b'$GNRMC,072036.00,A,4435.94092,N,01139.25775,E,17.433,96.57,220622,,,A*71\r\n'
36013369882	36.44	933.32	0.0	0.16	-1.05	-0.47	4.15	-13.91	-4.64	37.75	b'$GNVTG,96.57,T,,M,17.433,N,32.286,K,A*11\r\n'
36088593580	36.45	933.3	0.0	0.14	-1.05	-0.51	4.89	-14.16	-2.6	37.66	b'$GNGGA,072036.00,4435.94092,N,01139.25775,E,1,10,1.06,391.6,M,45.2,M,,*42\r\n'
36154791861	36.46	933.4	0.0	0.07	-1.05	-0.48	3.96	-11.44	-5.76	37.66	b'$GNGSA,A,3,26,05,18,02,12,11,31,25,,,,,2.39,1.06,2.14*18\r\n'
36196966705	36.47	933.44	0.0	0.09	-1.0	-0.47	7.14	-8.81	-8.27	37.57	b'$GNGSA,A,3,81,79,,,,,,,,,,,2.39,1.06,2.14*13\r\n'
36271755611	36.47	933.52	0.0	0.11	-1.03	-0.41	5.21	-7.75	-8.61	37.66	b'$GPGSV,4,1,13,02,14,041,24,04,04,327,22,05,16,089,20,11,10,038,24*71\r\n'
36346531757	36.48	933.48	0.0	0.14	-0.99	-0.48	0.13	-7.79	-5.05	37.75	b'$GPGSV,4,2,13,12,10,112,19,16,04,296,22,18,43,177,17,20,16,056,19*7C\r\n'
36413485819	36.47	933.46	0.0	0.01	-1.02	-0.44	2.13	-4.63	-7.61	37.66	b'$GPGSV,4,3,13,22,05,241,,25,50,111,16,26,32,302,22,29,75,029,18*75\r\n'
36446674934	36.47	933.54	0.0	0.11	-1.02	-0.46	-0.84	-1.26	-11.2	37.66	b'$GPGSV,4,4,13,31,55,264,22*49\r\n'
36513491496	36.46	933.56	0.0	0.16	-1.02	-0.48	0.53	-1.44	-8.85	37.75	b'$GLGSV,2,1,08,65,04,013,23,72,02,329,,73,39,322,,79,25,141,20*67\r\n'
36588040611	36.47	933.6	0.0	0.13	-1.07	-0.42	-2.89	-2.33	-4.46	37.75	b'$GLGSV,2,2,08,80,87,149,,81,23,036,17,82,75,029,14,83,54,218,*6A\r\n'
36639444465	36.48	933.67	0.0	0.09	-1.03	-0.5	-0.7	-0.89	-4.38	37.66	b'$GNGLL,4435.94092,N,01139.25775,E,072036.00,A,A*7F\r\n'
36971988059	36.46	933.62	0.0	0.1	-1.13	-0.45	0.65	0.58	-5.74	37.66	b'$GNRMC,072037.00,A,4435.94264,N,01139.27145,E,19.000,85.65,220622,,,A*75\r\n'
37013758632	36.45	933.81	0.0	0.12	-1.04	-0.42	-1.76	3.67	-4.79	37.66	b'$GNVTG,85.65,T,,M,19.000,N,35.188,K,A*12\r\n'
37088936288	36.46	933.86	0.0	0.16	-1.03	-0.45	-2.66	3.5	-4.03	37.66	b'$GNGGA,072037.00,4435.94264,N,01139.27145,E,1,10,1.06,416.9,M,45.2,M,,*48\r\n'
37155180611	36.46	933.89	0.0	0.16	-1.03	-0.42	-1.84	1.87	-0.05	37.66	b'$GNGSA,A,3,26,05,18,02,12,11,31,25,,,,,2.39,1.06,2.14*18\r\n'
37197211340	36.46	933.92	0.0	0.12	-1.03	-0.42	-3.9	1.92	-0.24	37.75	b'$GNGSA,A,3,81,79,,,,,,,,,,,2.39,1.06,2.14*13\r\n'
37272013632	36.47	933.9	0.0	0.12	-1.01	-0.45	-3.68	2.33	-1.47	37.75	b'$GPGSV,4,1,13,02,14,041,22,04,04,327,20,05,16,089,16,11,10,038,22*76\r\n'
37346829882	36.46	934.0	0.0	0.15	-0.98	-0.41	-3.38	2.05	-1.51	37.66	b'$GPGSV,4,2,13,12,10,112,16,16,04,296,22,18,43,177,23,20,16,056,17*7A\r\n'
37413820819	36.47	933.95	0.0	0.17	-1.02	-0.43	-4.79	0.6	1.15	37.66	b'$GPGSV,4,3,13,22,05,241,,25,50,111,18,26,32,302,22,29,75,029,19*7A\r\n'
37447053059	36.45	933.9	0.0	0.11	-1.05	-0.46	-5.39	0.22	1.08	37.57	b'$GPGSV,4,4,13,31,55,264,24*4F\r\n'
37513844465	36.47	934.01	0.0	0.1	-1.02	-0.46	-4.47	0.84	-0.33	37.66	b'$GLGSV,2,1,08,65,04,013,20,72,02,329,,73,39,322,,79,25,141,21*65\r\n'
